{
"type": "FeatureCollection",
"name": "atl-res-permits-proj4326",
"crs": { "type": "name", "properties": { "name": "urn:ogc:def:crs:OGC:1.3:CRS84" } },
"features": [
{ "type": "Feature", "properties": { "fid": 1, "Date": "01/06/2022", "Address": "1775 ALVARADO TER SW, ATLANTA GA 30310", "Description": "New 2 Story Home, new electrical, new plumbing, new hvac, new doors, windows, roofing, drywall and paint, cabinets, fixtures, new rear deck, new privacy fence", "Latitude": 33.734782, "Longitude": -84.445981 }, "geometry": { "type": "Point", "coordinates": [ -84.445981, 33.734782 ] } },
{ "type": "Feature", "properties": { "fid": 2, "Date": "01/06/2022", "Address": "3619 OLD IVY LN NE, ATLANTA GA 30342", "Description": "BUILD NEW HOUSE. BASEMENT. WOOD FRAING. FLAT ROOF. FACADES MIXING STUCCO, BRICK, MARBLE, AND PORCELAIN RAIN RAIN SCREEN.", "Latitude": 33.856252, "Longitude": -84.373795 }, "geometry": { "type": "Point", "coordinates": [ -84.373795, 33.856252 ] } },
{ "type": "Feature", "properties": { "fid": 3, "Date": "01/05/2022", "Address": "2576 WATKINS ST NW, ATLANTA GA 30318", "Description": "NEW 2 STORY SINGLE FAMILY HOUSE WITH 2 CAR GARAGE, COVERED FRONT PORCH AND REAR PATIO.", "Latitude": 33.78367, "Longitude": -84.472131 }, "geometry": { "type": "Point", "coordinates": [ -84.472131, 33.78367 ] } },
{ "type": "Feature", "properties": { "fid": 4, "Date": "01/05/2022", "Address": "472 HIAWASSEE DR SW, ATLANTA GA 30311", "Description": "New Single Family Home", "Latitude": 33.743166, "Longitude": -84.492652 }, "geometry": { "type": "Point", "coordinates": [ -84.492652, 33.743166 ] } },
{ "type": "Feature", "properties": { "fid": 5, "Date": "01/04/2022", "Address": "985 FOREST OVERLOOK DR SW, ATLANTA GA 30331", "Description": "New construction home. 2 story on partial unfinished basement", "Latitude": 33.720893, "Longitude": -84.545248 }, "geometry": { "type": "Point", "coordinates": [ -84.545248, 33.720893 ] } },
{ "type": "Feature", "properties": { "fid": 6, "Date": "01/04/2022", "Address": "1251 STATE ST NW, ATLANTA GA 30318", "Description": "CONSTRUCTION OF A 3 STORY HOUSE AND ACCESSORY STRUCTURE WITH DRIVEWAY EXTENSION AND HARDSCAPE.", "Latitude": 33.78905, "Longitude": -84.398399 }, "geometry": { "type": "Point", "coordinates": [ -84.398399, 33.78905 ] } },
{ "type": "Feature", "properties": { "fid": 7, "Date": "01/04/2022", "Address": "394 SAWTELL AVE SE, ATLANTA GA 30315", "Description": "New construction of single family home on vacant lot. 1 story wood framed on crawlspace foundation with fiber cement siding and asphalt shingles", "Latitude": 33.70743, "Longitude": -84.37595 }, "geometry": { "type": "Point", "coordinates": [ -84.37595, 33.70743 ] } },
{ "type": "Feature", "properties": { "fid": 8, "Date": "12/29/2021", "Address": "105 REHOBOTH CIR SW, ATLANTA GA 30331", "Description": "Proposed new single family residence new construction build to include 3 car garage, 4 bedrooms, 4 bathrooms, along with kitchen, living and dining areas.", "Latitude": 33.726156, "Longitude": -84.529901 }, "geometry": { "type": "Point", "coordinates": [ -84.529901, 33.726156 ] } },
{ "type": "Feature", "properties": { "fid": 9, "Date": "12/27/2021", "Address": "637 IRA ST SW, ATLANTA GA 30312", "Description": "NEW CONSTRUCTION OF SINGLE FAMILY RESIDENCE W/ NEW DRIVEWAY.", "Latitude": 33.737546, "Longitude": -84.40024 }, "geometry": { "type": "Point", "coordinates": [ -84.40024, 33.737546 ] } },
{ "type": "Feature", "properties": { "fid": 10, "Date": "12/27/2021", "Address": "1675 SOUTH OLYMPIAN WAY SW, ATLANTA GA 30310", "Description": "CONSTRUCTION OF A SINGLE FAMILY RESIDENCE ON A VACANT LOT", "Latitude": 33.736163, "Longitude": -84.442724 }, "geometry": { "type": "Point", "coordinates": [ -84.442724, 33.736163 ] } },
{ "type": "Feature", "properties": { "fid": 11, "Date": "12/22/2021", "Address": "1026 REEDER CIR NE, ATLANTA GA 30306", "Description": "Construction of new single family house and swimming pool.", "Latitude": 33.795265, "Longitude": -84.352837 }, "geometry": { "type": "Point", "coordinates": [ -84.352837, 33.795265 ] } },
{ "type": "Feature", "properties": { "fid": 12, "Date": "12/21/2021", "Address": "387 VILLAGE CREEK DR SE, ATLANTA GA 30354", "Description": "NEW CONSTRUCTION 1 STORY WITH FRONT PORCH, DRIVEWAY, AND SIDE STOOP.", "Latitude": 33.669811, "Longitude": -84.379665 }, "geometry": { "type": "Point", "coordinates": [ -84.379665, 33.669811 ] } },
{ "type": "Feature", "properties": { "fid": 13, "Date": "12/21/2021", "Address": "259 LOVE ST SW, ATLANTA GA 30315", "Description": "NEW TWO STORY DUPLEX WITH COVERED FRONT PORCH, SECOND STORY BALCONIES.", "Latitude": 33.734906, "Longitude": -84.39655 }, "geometry": { "type": "Point", "coordinates": [ -84.39655, 33.734906 ] } },
{ "type": "Feature", "properties": { "fid": 14, "Date": "12/21/2021", "Address": "515 MCWILLIAMS RD SE, ATLANTA GA 30315", "Description": "Install Cross-mod (Double Wide Manufactured house with a site built garage) permanently to the concrete foundation", "Latitude": 33.68827, "Longitude": -84.372234 }, "geometry": { "type": "Point", "coordinates": [ -84.372234, 33.68827 ] } },
{ "type": "Feature", "properties": { "fid": 15, "Date": "12/20/2021", "Address": "813 COLEMAN ST SW, ATLANTA GA 30310", "Description": "NEW  CONSTRUCTION", "Latitude": 33.732799, "Longitude": -84.404073 }, "geometry": { "type": "Point", "coordinates": [ -84.404073, 33.732799 ] } },
{ "type": "Feature", "properties": { "fid": 16, "Date": "12/20/2021", "Address": "2114 MEMORIAL DR SE, ATLANTA GA 30317", "Description": "NEW CONSTRUCTION", "Latitude": 33.747723, "Longitude": -84.318581 }, "geometry": { "type": "Point", "coordinates": [ -84.318581, 33.747723 ] } },
{ "type": "Feature", "properties": { "fid": 17, "Date": "12/20/2021", "Address": "255 LOVE ST SW, ATLANTA GA 30315", "Description": "New two story duplex with covered front porch, second story balconies.", "Latitude": 33.734903, "Longitude": -84.396348 }, "geometry": { "type": "Point", "coordinates": [ -84.396348, 33.734903 ] } },
{ "type": "Feature", "properties": { "fid": 18, "Date": "12/20/2021", "Address": "140 RACINE ST SW, ATLANTA GA 30314", "Description": "Erection of a new single family dwelling unit", "Latitude": 33.751408, "Longitude": -84.440943 }, "geometry": { "type": "Point", "coordinates": [ -84.440943, 33.751408 ] } },
{ "type": "Feature", "properties": { "fid": 19, "Date": "12/20/2021", "Address": "1994 DREW DR NW, ATLANTA GA 30318", "Description": "Construction of a new single family home with attached garage(LD#201300025)", "Latitude": 33.79293, "Longitude": -84.454723 }, "geometry": { "type": "Point", "coordinates": [ -84.454723, 33.79293 ] } },
{ "type": "Feature", "properties": { "fid": 20, "Date": "12/20/2021", "Address": "1132 MOORES MILL RD NW, ATLANTA GA 30327", "Description": "PROPOSED HOUSE, PORCHES, RETAINING WALLS, PATIOS, GARAGE, DRIVEWAY, WALKWAYS, AND POOL COMPLEX", "Latitude": 33.83226, "Longitude": -84.423456 }, "geometry": { "type": "Point", "coordinates": [ -84.423456, 33.83226 ] } },
{ "type": "Feature", "properties": { "fid": 21, "Date": "12/17/2021", "Address": "1386 KENILWORTH DR SW, ATLANTA GA 30310", "Description": "New 2 Story Home, new electrical, new plumbing, new hvac, new doors, windows, roofing, drywall and paint, cabinets, fixtures, new rear deck, new privacy fence", "Latitude": 33.717195, "Longitude": -84.433775 }, "geometry": { "type": "Point", "coordinates": [ -84.433775, 33.717195 ] } },
{ "type": "Feature", "properties": { "fid": 22, "Date": "12/17/2021", "Address": "3053 DELTA WAY SE, ATLANTA GA 30342", "Description": "New Construction of a one-story, four-bedroom home with a front porch, side stoop, and driveway", "Latitude": 33.671417, "Longitude": -84.380261 }, "geometry": { "type": "Point", "coordinates": [ -84.380261, 33.671417 ] } },
{ "type": "Feature", "properties": { "fid": 23, "Date": "12/16/2021", "Address": "958 JOSEPH E BOONE BLVD NW, ATLANTA GA 30314", "Description": "NEW CONSTRUCTION", "Latitude": 33.763228, "Longitude": -84.41893 }, "geometry": { "type": "Point", "coordinates": [ -84.41893, 33.763228 ] } },
{ "type": "Feature", "properties": { "fid": 24, "Date": "12/16/2021", "Address": "53 BOWEN AVE SE, ATLANTA GA 30315", "Description": "NEW 2 STORY SINGLE FAMILY HOUSE WITH COVERED FRONT PORCH AND REAR DECK", "Latitude": 33.70973, "Longitude": -84.38399 }, "geometry": { "type": "Point", "coordinates": [ -84.38399, 33.70973 ] } },
{ "type": "Feature", "properties": { "fid": 25, "Date": "12/16/2021", "Address": "2050 BOLTON RD NW, ATLANTA GA 30318", "Description": "NEW 2 STORY DUPLEX WITH FRONT COVERED PORCH", "Latitude": 33.811861, "Longitude": -84.474577 }, "geometry": { "type": "Point", "coordinates": [ -84.474577, 33.811861 ] } },
{ "type": "Feature", "properties": { "fid": 26, "Date": "12/16/2021", "Address": "2050 BOLTON RD NW, ATLANTA GA 30318", "Description": "BUILDING A IS A NEW TWO STORY DUPLEX WITH A FRONT COVERED PORCH AND REAR DECK", "Latitude": 33.811861, "Longitude": -84.474577 }, "geometry": { "type": "Point", "coordinates": [ -84.474577, 33.811861 ] } },
{ "type": "Feature", "properties": { "fid": 27, "Date": "12/16/2021", "Address": "2071 FAIRHAVEN CIR NE, ATLANTA GA 30305", "Description": "CONSTRUCTION OF NEW RESIDENCE.", "Latitude": 33.81436, "Longitude": -84.388704 }, "geometry": { "type": "Point", "coordinates": [ -84.388704, 33.81436 ] } },
{ "type": "Feature", "properties": { "fid": 28, "Date": "12/16/2021", "Address": "3355 VALLEY RD NW, ATLANTA GA 30305", "Description": "Construct two-story new house, with basement & pool", "Latitude": 33.846112, "Longitude": -84.383885 }, "geometry": { "type": "Point", "coordinates": [ -84.383885, 33.846112 ] } },
{ "type": "Feature", "properties": { "fid": 29, "Date": "12/16/2021", "Address": "132 2ND ST NW, ATLANTA GA 30318", "Description": "NEW TWO STORY SINGLE FAMILY HOME WITH FRONT PORCH AND DECK, AND SLAB FOUNDATION.", "Latitude": 33.785717, "Longitude": -84.467812 }, "geometry": { "type": "Point", "coordinates": [ -84.467812, 33.785717 ] } },
{ "type": "Feature", "properties": { "fid": 30, "Date": "12/15/2021", "Address": "1025 AVONDALE AVE SE, ATLANTA GA 30312", "Description": "New 2-story SFR with a detached garage with an apt above the garage.", "Latitude": 33.726548, "Longitude": -84.362627 }, "geometry": { "type": "Point", "coordinates": [ -84.362627, 33.726548 ] } },
{ "type": "Feature", "properties": { "fid": 31, "Date": "12/15/2021", "Address": "102 PEACHTREE CIR NE, ATLANTA GA 00000", "Description": "CONSTRUCTION OF NEW SINGLE FAMILY RESIDENCE, POOL & EXTERIOR SITE", "Latitude": 33.791871, "Longitude": -84.383969 }, "geometry": { "type": "Point", "coordinates": [ -84.383969, 33.791871 ] } },
{ "type": "Feature", "properties": { "fid": 32, "Date": "12/15/2021", "Address": "235 BEVERLY RD NE, ATLANTA GA 30309", "Description": "Build new 2 story home with partial finish basement.", "Latitude": 33.79642, "Longitude": -84.379573 }, "geometry": { "type": "Point", "coordinates": [ -84.379573, 33.79642 ] } },
{ "type": "Feature", "properties": { "fid": 33, "Date": "12/14/2021", "Address": "1944 JAMES RED MOORE BLVD NW, ATLANTA GA 30318", "Description": "NEW SINGLE FAMILY WITH ATTACHED GARAGE", "Latitude": 33.794316, "Longitude": -84.453327 }, "geometry": { "type": "Point", "coordinates": [ -84.453327, 33.794316 ] } },
{ "type": "Feature", "properties": { "fid": 34, "Date": "12/14/2021", "Address": "1952 JAMES RED MOORE BLVD NW, ATLANTA GA 30318", "Description": "NEW SINGLE FAMILY WITH ATTACHED GARAGE", "Latitude": 33.794239, "Longitude": -84.453571 }, "geometry": { "type": "Point", "coordinates": [ -84.453571, 33.794239 ] } },
{ "type": "Feature", "properties": { "fid": 35, "Date": "12/14/2021", "Address": "4075 FAIRBURN AVE SW, ATLANTA GA 30331", "Description": "New single-family house rear deck and front porch", "Latitude": 33.692294, "Longitude": -84.522631 }, "geometry": { "type": "Point", "coordinates": [ -84.522631, 33.692294 ] } },
{ "type": "Feature", "properties": { "fid": 36, "Date": "12/14/2021", "Address": "4085 FAIRBURN AVE SW, ATLANTA GA 30331", "Description": "Erection of a new single family dwelling unit.", "Latitude": 33.692287, "Longitude": -84.522967 }, "geometry": { "type": "Point", "coordinates": [ -84.522967, 33.692287 ] } },
{ "type": "Feature", "properties": { "fid": 37, "Date": "12/14/2021", "Address": "4081 FAIRBURN AVE SW, ATLANTA GA 30331", "Description": "Erection of a new single family dwelling unit.", "Latitude": 33.69229, "Longitude": -84.522796 }, "geometry": { "type": "Point", "coordinates": [ -84.522796, 33.69229 ] } },
{ "type": "Feature", "properties": { "fid": 38, "Date": "12/13/2021", "Address": "1737 WEST WESLEY RD NW, ATLANTA GA 30327", "Description": "NEW TWO STORY SINGLE FAMILY HOUSE WITH UNFINISHED BASEMENT, FRONT PORCH, SCREENED PORCH, REAR TERRACE AND 3 CAR GARAGE.", "Latitude": 33.840151, "Longitude": -84.443992 }, "geometry": { "type": "Point", "coordinates": [ -84.443992, 33.840151 ] } },
{ "type": "Feature", "properties": { "fid": 39, "Date": "12/13/2021", "Address": "608 SOUTH EVELYN PL NW, ATLANTA GA 30318", "Description": "Erection of a new single family dwelling unit.", "Latitude": 33.771708, "Longitude": -84.44663 }, "geometry": { "type": "Point", "coordinates": [ -84.44663, 33.771708 ] } },
{ "type": "Feature", "properties": { "fid": 40, "Date": "12/13/2021", "Address": "1124 VIOLET AVE NW, ATLANTA GA 30318", "Description": "NEW TWO STORY SINGLE FAMILY HOUSE WITH COVERED FRONT PORCH AND REAR PATIO.", "Latitude": 33.785611, "Longitude": -84.464379 }, "geometry": { "type": "Point", "coordinates": [ -84.464379, 33.785611 ] } },
{ "type": "Feature", "properties": { "fid": 41, "Date": "12/13/2021", "Address": "1240 OAKLAND TER SW, ATLANTA GA 30310", "Description": "To construct a new duplex", "Latitude": 33.720533, "Longitude": -84.428586 }, "geometry": { "type": "Point", "coordinates": [ -84.428586, 33.720533 ] } },
{ "type": "Feature", "properties": { "fid": 42, "Date": "12/13/2021", "Address": "460 WIMBLEDON RD NE, ATLANTA GA 30324", "Description": "New construction single family residence with attached garage and unfinished basement/storage.", "Latitude": 33.807014, "Longitude": -84.372193 }, "geometry": { "type": "Point", "coordinates": [ -84.372193, 33.807014 ] } },
{ "type": "Feature", "properties": { "fid": 43, "Date": "12/10/2021", "Address": "716 LILLIAN AVE SW, ATLANTA GA 30310", "Description": "New single family with privacy fence, balconies/porches/decks", "Latitude": 33.73092, "Longitude": -84.411214 }, "geometry": { "type": "Point", "coordinates": [ -84.411214, 33.73092 ] } },
{ "type": "Feature", "properties": { "fid": 44, "Date": "12/10/2021", "Address": "4152 CLUB DR NE, ATLANTA GA 30319", "Description": "NEW FOUNDATION IN EXISTING FOOTPRINT PLUS ADDITION INTO UNUSED PART OF SIDE YARD. TWO-STORY SINGLE-FAMILY RESIDENCE ON FINISHED STREET AND UPPER LEVEL PLUS TWO-CAR GARAGE. THE BASEMENT HAS EXIT TO THE LOWER LEVEL OF THE YARD. LANDSCAPING WILL ACCOMMODATE THE STORMWATER MITIGATION PLAN.", "Latitude": 33.868399, "Longitude": -84.357146 }, "geometry": { "type": "Point", "coordinates": [ -84.357146, 33.868399 ] } },
{ "type": "Feature", "properties": { "fid": 45, "Date": "12/09/2021", "Address": "1431 GRAYMONT DR SW, ATLANTA GA 30310", "Description": "NEW 3 BED/ 2.5 BATH SINGLE FAMILY RESIDENCE.", "Latitude": 33.715169, "Longitude": -84.436897 }, "geometry": { "type": "Point", "coordinates": [ -84.436897, 33.715169 ] } },
{ "type": "Feature", "properties": { "fid": 46, "Date": "12/09/2021", "Address": "1163 AMSTERDAM AVE NE, ATLANTA GA 30306", "Description": "CONSTRUCT NEW SINGLE-FAMILY RESIDENCE WITH BASEMENT, COVERED FRONT PORCH, AND COVERED REAR PATIO.", "Latitude": 33.787292, "Longitude": -84.349143 }, "geometry": { "type": "Point", "coordinates": [ -84.349143, 33.787292 ] } },
{ "type": "Feature", "properties": { "fid": 47, "Date": "12/09/2021", "Address": "753 MARTIN ST SE, ATLANTA GA 30315", "Description": "CONSTRUCTION OF A NEW SINGLE-FAMILY HOUSE", "Latitude": 33.734065, "Longitude": -84.384405 }, "geometry": { "type": "Point", "coordinates": [ -84.384405, 33.734065 ] } },
{ "type": "Feature", "properties": { "fid": 48, "Date": "12/08/2021", "Address": "1427 GRAYMONT DR SW, ATLANTA GA 30310", "Description": "NEW 3 BEDROOM  CONSTRUCTION", "Latitude": 33.715305, "Longitude": -84.436899 }, "geometry": { "type": "Point", "coordinates": [ -84.436899, 33.715305 ] } },
{ "type": "Feature", "properties": { "fid": 49, "Date": "12/08/2021", "Address": "40 LAKEVIEW DR NE, ATLANTA GA 30317", "Description": "NEW CONSTRUCTION WITH PORCHES, DECK, DIVEWAY, SIDE WALK , DRIVE UNDER GARAGE", "Latitude": 33.752666, "Longitude": -84.314298 }, "geometry": { "type": "Point", "coordinates": [ -84.314298, 33.752666 ] } },
{ "type": "Feature", "properties": { "fid": 50, "Date": "12/08/2021", "Address": "340 EUGENIA ST SW, ATLANTA GA 30312", "Description": "NEW 3 STORY DUPLEX WITH PATIO AND GARAGE", "Latitude": 33.742718, "Longitude": -84.399055 }, "geometry": { "type": "Point", "coordinates": [ -84.399055, 33.742718 ] } },
{ "type": "Feature", "properties": { "fid": 51, "Date": "12/08/2021", "Address": "48 WHITEFOORD AVE SE, ATLANTA GA 30317", "Description": "12/ 8/ 21 BUILD A NEW HOUSE WITH PARTIAL2ND STORY AND PARTIAL BASEMENT -- IN PLACE OF EXISTING HOUSE ON THE PROPERTY TO BE REMOVED. BUILD A NEW DETACHED  ACESSORY STRUCTURE AT THE REAR OF THE PROPERTY.", "Latitude": 33.752042, "Longitude": -84.342017 }, "geometry": { "type": "Point", "coordinates": [ -84.342017, 33.752042 ] } },
{ "type": "Feature", "properties": { "fid": 52, "Date": "12/08/2021", "Address": "353 MARY ST SW, ATLANTA GA 30310", "Description": "New two story residence. 1974 conditioned sqft", "Latitude": 33.729503, "Longitude": -84.399631 }, "geometry": { "type": "Point", "coordinates": [ -84.399631, 33.729503 ] } },
{ "type": "Feature", "properties": { "fid": 53, "Date": "12/08/2021", "Address": "1948 JAMES RED MOORE BLVD NW, ATLANTA GA 30318", "Description": "NEW SINGLE-FAMILY HOME. IT IS A TWO STORY HOUSE WITH AN ATTACHED GARAGE AND A PAVED DR(LD # 201300025)", "Latitude": 33.794286, "Longitude": -84.453455 }, "geometry": { "type": "Point", "coordinates": [ -84.453455, 33.794286 ] } },
{ "type": "Feature", "properties": { "fid": 54, "Date": "12/07/2021", "Address": "1924 BROWNS MILL RD SE, ATLANTA GA 30315", "Description": "Install a Cross-mod (Double Wide Manufactured house with a site built garage) permanently to the concrete foundation.", "Latitude": 33.701669, "Longitude": -84.375792 }, "geometry": { "type": "Point", "coordinates": [ -84.375792, 33.701669 ] } },
{ "type": "Feature", "properties": { "fid": 55, "Date": "12/07/2021", "Address": "1620 DERRY AVE SW, ATLANTA GA 30310", "Description": "This project is for the Design and construction of a new single family home.  The work shall provide foundation, Floor, Wall, Ceiling and Roof Framing with exterior wall and roof materials and interior finishes.", "Latitude": 33.743174, "Longitude": -84.440734 }, "geometry": { "type": "Point", "coordinates": [ -84.440734, 33.743174 ] } },
{ "type": "Feature", "properties": { "fid": 56, "Date": "12/07/2021", "Address": "2371 ST JAMES DR NW, ATLANTA GA 30318", "Description": "2 Story Single Family with Front Porch and Rear Patio", "Latitude": 33.785576, "Longitude": -84.46586 }, "geometry": { "type": "Point", "coordinates": [ -84.46586, 33.785576 ] } },
{ "type": "Feature", "properties": { "fid": 57, "Date": "12/07/2021", "Address": "1196 SHORE DR SW, ATLANTA GA 30311", "Description": "NEW BUILD", "Latitude": 33.722916, "Longitude": -84.481699 }, "geometry": { "type": "Point", "coordinates": [ -84.481699, 33.722916 ] } },
{ "type": "Feature", "properties": { "fid": 58, "Date": "12/07/2021", "Address": "2864 NORTH HILLS DR NE, ATLANTA GA 30305", "Description": "11.18.2021 SCOPE UPDATED TO INCLUDE: SIDEWALK INSTALLDEMOLISH EXIST. FRONT AND ENTIRE FLOOR JOIST ADD A SECOND FLOOR WITH A MASTER SUITE AND ONE OTHER BEDROOM AND A BATHROOM. DEMOLISH LIVING ROOM WALLS, KITCHEN, REBUILD A NEW KITCHEN AND FAMILY ROOM ON THE SAME FOOT PRINT", "Latitude": 33.832843, "Longitude": -84.372535 }, "geometry": { "type": "Point", "coordinates": [ -84.372535, 33.832843 ] } },
{ "type": "Feature", "properties": { "fid": 59, "Date": "12/07/2021", "Address": "796 BENDER ST SW, ATLANTA GA 30310", "Description": "SF detached residential new construction on vacant lot.", "Latitude": 33.733136, "Longitude": -84.406512 }, "geometry": { "type": "Point", "coordinates": [ -84.406512, 33.733136 ] } },
{ "type": "Feature", "properties": { "fid": 60, "Date": "12/07/2021", "Address": "663 WEST VALLEY CT NW, ATLANTA GA 30327", "Description": "NEW TWO STORY SINGLE FAMILY HOME WITH THREE CAR GARAGE, FRONT COVEREDPORCH, REAR SCREEN PORCH, DETACHED POOL CABANA AND RETAINING WALLS.", "Latitude": 33.874642, "Longitude": -84.411121 }, "geometry": { "type": "Point", "coordinates": [ -84.411121, 33.874642 ] } },
{ "type": "Feature", "properties": { "fid": 61, "Date": "12/06/2021", "Address": "397 VILLAGE CREEK DR SE, ATLANTA GA 30354", "Description": "New Construction of a two-story, four bedroom home with a front porch, side stoop, and driveway", "Latitude": 33.669808, "Longitude": -84.379318 }, "geometry": { "type": "Point", "coordinates": [ -84.379318, 33.669808 ] } },
{ "type": "Feature", "properties": { "fid": 62, "Date": "12/06/2021", "Address": "1150 OAK ST SW, ATLANTA GA 30310", "Description": "NEW CONSTRUCTION", "Latitude": 33.740513, "Longitude": -84.425438 }, "geometry": { "type": "Point", "coordinates": [ -84.425438, 33.740513 ] } },
{ "type": "Feature", "properties": { "fid": 63, "Date": "12/03/2021", "Address": "446 ALLENDALE DR SE, ATLANTA GA 30317", "Description": "New SFR", "Latitude": 33.740344, "Longitude": -84.294733 }, "geometry": { "type": "Point", "coordinates": [ -84.294733, 33.740344 ] } },
{ "type": "Feature", "properties": { "fid": 64, "Date": "12/02/2021", "Address": "1010 VIOLET ST SW, ATLANTA GA 30310", "Description": "CONSTRUCT NEW DUPLEX ON VACANT LOT. INCLUDES COVERED FRONT PORCH AND COVERED REAR PORCH.", "Latitude": 33.727763, "Longitude": -84.43157 }, "geometry": { "type": "Point", "coordinates": [ -84.43157, 33.727763 ] } },
{ "type": "Feature", "properties": { "fid": 65, "Date": "12/02/2021", "Address": "826 BERYL ST SW, ATLANTA GA 30310", "Description": "CONSTRUCT NEW 2 STORY WOOD FRAME HOME, CREATE NEW COVERED FRONT PORCH, CREATE NEW DECK, CREATE NEW WALKWAY, CREATE NEW DRIVEWAY, INSTALL ALL NEW MEP'S.", "Latitude": 33.732427, "Longitude": -84.406865 }, "geometry": { "type": "Point", "coordinates": [ -84.406865, 33.732427 ] } },
{ "type": "Feature", "properties": { "fid": 66, "Date": "12/01/2021", "Address": "1084 HUBBARD ST SW, ATLANTA GA 30310", "Description": "NEW CONTRUCTION  2 STORY HOME", "Latitude": 33.725302, "Longitude": -84.402213 }, "geometry": { "type": "Point", "coordinates": [ -84.402213, 33.725302 ] } },
{ "type": "Feature", "properties": { "fid": 67, "Date": "11/30/2021", "Address": "359 MARY ST SW, ATLANTA GA 30310", "Description": "New two story residence, 1786 conditional sqft", "Latitude": 33.729504, "Longitude": -84.399816 }, "geometry": { "type": "Point", "coordinates": [ -84.399816, 33.729504 ] } },
{ "type": "Feature", "properties": { "fid": 68, "Date": "11/30/2021", "Address": "4436 CLUB DR NE, ATLANTA GA 30319", "Description": "NEW CONSTRUCTION ON PREVIOUSLY DEMO'D LOT ; RESIDENCE,DRIVEWAY,RETAINING WALLS, COVERED PROCH & GARAGE.", "Latitude": 33.875839, "Longitude": -84.354778 }, "geometry": { "type": "Point", "coordinates": [ -84.354778, 33.875839 ] } },
{ "type": "Feature", "properties": { "fid": 69, "Date": "11/29/2021", "Address": "727 CASCADE AVE SW, ATLANTA GA 30310", "Description": "New Construction", "Latitude": 33.735543, "Longitude": -84.436819 }, "geometry": { "type": "Point", "coordinates": [ -84.436819, 33.735543 ] } },
{ "type": "Feature", "properties": { "fid": 70, "Date": "11/29/2021", "Address": "986 MCDANIEL ST SW, ATLANTA GA 30310", "Description": "Construct new single family residence with porch, attached carport, front walk, retaining wall, and driveway.", "Latitude": 33.728015, "Longitude": -84.401372 }, "geometry": { "type": "Point", "coordinates": [ -84.401372, 33.728015 ] } },
{ "type": "Feature", "properties": { "fid": 71, "Date": "11/29/2021", "Address": "3651 RANDALL MILL RD NW, ATLANTA GA 30327", "Description": "CONSTRUCTION OF SINGLE FAMILY HOME WITH 2-CAR GARAGE/POOL EQUIPMENT ACCESSORY BUILDING AND SWIMMING POOL.", "Latitude": 33.854707, "Longitude": -84.421276 }, "geometry": { "type": "Point", "coordinates": [ -84.421276, 33.854707 ] } },
{ "type": "Feature", "properties": { "fid": 72, "Date": "11/25/2021", "Address": "1943 CONRAD AVE SE, ATLANTA GA 30315", "Description": "NEW CONSTRUCTION", "Latitude": 33.701269, "Longitude": -84.381846 }, "geometry": { "type": "Point", "coordinates": [ -84.381846, 33.701269 ] } },
{ "type": "Feature", "properties": { "fid": 73, "Date": "11/24/2021", "Address": "988 MCDANIEL ST SW, ATLANTA GA 30310", "Description": "NEW SINGLE FAMILY WITH PORCH, ATTACHED CARPORT FRONT WALK,RETAINING WALL AND DRIVEWAY", "Latitude": 33.727945, "Longitude": -84.401374 }, "geometry": { "type": "Point", "coordinates": [ -84.401374, 33.727945 ] } },
{ "type": "Feature", "properties": { "fid": 74, "Date": "11/24/2021", "Address": "990 MCDANIEL ST SW, ATLANTA GA 30310", "Description": "NEW SINGLE FAMILY WITH PORCH, ATTACHED CARPORT,FRONT WALK,RETAINING WALL & DRIVEWAY", "Latitude": 33.727875, "Longitude": -84.401377 }, "geometry": { "type": "Point", "coordinates": [ -84.401377, 33.727875 ] } },
{ "type": "Feature", "properties": { "fid": 75, "Date": "11/23/2021", "Address": "1292 LANIER BLVD NE, ATLANTA GA 30306", "Description": "Construct new single family residence with basement on vacant lot. Work includes covered front porch and covered rear patio.", "Latitude": 33.789912, "Longitude": -84.350111 }, "geometry": { "type": "Point", "coordinates": [ -84.350111, 33.789912 ] } },
{ "type": "Feature", "properties": { "fid": 76, "Date": "11/23/2021", "Address": "639 OZBURN RD NW, ATLANTA GA 30318", "Description": "New construction build from ground up.", "Latitude": 33.772595, "Longitude": -84.475684 }, "geometry": { "type": "Point", "coordinates": [ -84.475684, 33.772595 ] } },
{ "type": "Feature", "properties": { "fid": 77, "Date": "11/23/2021", "Address": "1884 MARKONE ST NW, ATLANTA GA 30318", "Description": "Construction of new 1,415 sq. ft. single-family residence.", "Latitude": 33.769561, "Longitude": -84.448618 }, "geometry": { "type": "Point", "coordinates": [ -84.448618, 33.769561 ] } },
{ "type": "Feature", "properties": { "fid": 78, "Date": "11/22/2021", "Address": "366 TAZOR ST NW, ATLANTA GA 30314", "Description": "NEW CONSTRUCTION 2 STORY HOME", "Latitude": 33.764695, "Longitude": -84.421253 }, "geometry": { "type": "Point", "coordinates": [ -84.421253, 33.764695 ] } },
{ "type": "Feature", "properties": { "fid": 79, "Date": "11/22/2021", "Address": "409 KING RD NW, ATLANTA GA 30342", "Description": "NEW SINGLE FAMILY RESIDENCE WITH TENNIS COURT AND LAP SWIMMING POOL", "Latitude": 33.862638, "Longitude": -84.400762 }, "geometry": { "type": "Point", "coordinates": [ -84.400762, 33.862638 ] } },
{ "type": "Feature", "properties": { "fid": 80, "Date": "11/22/2021", "Address": "1081 KIPLING ST SE, ATLANTA GA 30315", "Description": "NEW CONSTRUCTION OF SFH. 1 STORY WOOD FRAMED STRUCTURE ON CINDER BLOCK FOUNDATION WITH FIBER CEMENT SIDING AND ASPHALT SHINGLES.", "Latitude": 33.701739, "Longitude": -84.35183 }, "geometry": { "type": "Point", "coordinates": [ -84.35183, 33.701739 ] } },
{ "type": "Feature", "properties": { "fid": 81, "Date": "11/22/2021", "Address": "633 MCGRUDER ST NE, ATLANTA GA 30312", "Description": "NEW CONSTRUCTION", "Latitude": 33.758332, "Longitude": -84.366514 }, "geometry": { "type": "Point", "coordinates": [ -84.366514, 33.758332 ] } },
{ "type": "Feature", "properties": { "fid": 82, "Date": "11/19/2021", "Address": "200 MELLRICH AVE NE, ATLANTA GA 30317", "Description": "Build 2 story single family 3200 SQF", "Latitude": 33.758278, "Longitude": -84.313107 }, "geometry": { "type": "Point", "coordinates": [ -84.313107, 33.758278 ] } },
{ "type": "Feature", "properties": { "fid": 83, "Date": "11/19/2021", "Address": "250 MARTHA AVE NE, ATLANTA GA 30317", "Description": "Build 2 story single family 3600 SQF", "Latitude": 33.759718, "Longitude": -84.314102 }, "geometry": { "type": "Point", "coordinates": [ -84.314102, 33.759718 ] } },
{ "type": "Feature", "properties": { "fid": 84, "Date": "11/19/2021", "Address": "581 ENGLISH AVE NW, ATLANTA GA 30318", "Description": "New SF home and New Drive way", "Latitude": 33.770581, "Longitude": -84.413216 }, "geometry": { "type": "Point", "coordinates": [ -84.413216, 33.770581 ] } },
{ "type": "Feature", "properties": { "fid": 85, "Date": "11/19/2021", "Address": "1047 FORTRESS AVE SW, ATLANTA GA 30315", "Description": "New 2 story single family residence with front porch and rear deck.", "Latitude": 33.726101, "Longitude": -84.394681 }, "geometry": { "type": "Point", "coordinates": [ -84.394681, 33.726101 ] } },
{ "type": "Feature", "properties": { "fid": 86, "Date": "11/19/2021", "Address": "2304 HERRING RD SW, ATLANTA GA 30311", "Description": "BUILD A NEW CONSTRUCTIONSINGLE FAMILY RESIDENTIAL HOME.", "Latitude": 33.726578, "Longitude": -84.46276 }, "geometry": { "type": "Point", "coordinates": [ -84.46276, 33.726578 ] } },
{ "type": "Feature", "properties": { "fid": 87, "Date": "11/18/2021", "Address": "1990 DREW DR NW, ATLANTA GA 30318", "Description": "CONSTRUCTION OF A NSFH WITH ATTACHED GARAGELD 201300025", "Latitude": 33.792938, "Longitude": -84.454455 }, "geometry": { "type": "Point", "coordinates": [ -84.454455, 33.792938 ] } },
{ "type": "Feature", "properties": { "fid": 88, "Date": "11/17/2021", "Address": "952 SIMS ST SW, ATLANTA GA 30310", "Description": "New house construction and detached garage w/ ADU", "Latitude": 33.728924, "Longitude": -84.402951 }, "geometry": { "type": "Point", "coordinates": [ -84.402951, 33.728924 ] } },
{ "type": "Feature", "properties": { "fid": 89, "Date": "11/17/2021", "Address": "2367 LAKEWOOD AVE SW, ATLANTA GA 30315", "Description": "New construction Single family home", "Latitude": 33.697428, "Longitude": -84.396446 }, "geometry": { "type": "Point", "coordinates": [ -84.396446, 33.697428 ] } },
{ "type": "Feature", "properties": { "fid": 90, "Date": "11/17/2021", "Address": "730 SOUTH GRAND AVE NW, ATLANTA GA 30318", "Description": "Single family house with front porch with rear patio", "Latitude": 33.774972, "Longitude": -84.463024 }, "geometry": { "type": "Point", "coordinates": [ -84.463024, 33.774972 ] } },
{ "type": "Feature", "properties": { "fid": 91, "Date": "11/16/2021", "Address": "2367 SUMMIT AVE NW, ATLANTA GA 30318", "Description": "NEW CONSTRUCTION, FRONT PORCH AND DECK ON BASEMENT FOUNDATION", "Latitude": 33.78398, "Longitude": -84.465629 }, "geometry": { "type": "Point", "coordinates": [ -84.465629, 33.78398 ] } },
{ "type": "Feature", "properties": { "fid": 92, "Date": "11/16/2021", "Address": "703 MOORES MILL RD NW, ATLANTA GA 30327", "Description": "CONSTRUCTION SINGLE FAMILY RESIDENCE WITH 2 CAR GARAGE", "Latitude": 33.843297, "Longitude": -84.410958 }, "geometry": { "type": "Point", "coordinates": [ -84.410958, 33.843297 ] } },
{ "type": "Feature", "properties": { "fid": 93, "Date": "11/16/2021", "Address": "1237 ATLANTIC DR NW, ATLANTA GA 30318", "Description": "New Home with front porch and rear covered deck on a Vacant Lot", "Latitude": 33.788633, "Longitude": -84.397365 }, "geometry": { "type": "Point", "coordinates": [ -84.397365, 33.788633 ] } },
{ "type": "Feature", "properties": { "fid": 94, "Date": "11/16/2021", "Address": "223 TENNESSEE AVE SW, ATLANTA GA 30315", "Description": "New Construction- single family residence", "Latitude": 33.734254, "Longitude": -84.395185 }, "geometry": { "type": "Point", "coordinates": [ -84.395185, 33.734254 ] } },
{ "type": "Feature", "properties": { "fid": 95, "Date": "11/16/2021", "Address": "2652 BROWN ST NW, ATLANTA GA 30318", "Description": "SINGLE FAMILY HOUSE WITH FRONT PORCH AND REAR PORCH ON BASEMENT FOUNDATION", "Latitude": 33.782348, "Longitude": -84.475053 }, "geometry": { "type": "Point", "coordinates": [ -84.475053, 33.782348 ] } },
{ "type": "Feature", "properties": { "fid": 96, "Date": "11/16/2021", "Address": "1956 JAMES RED MOORE BLVD NW, ATLANTA GA 30318", "Description": "CONSTRUCTION OF A SINGLE FAMILY HOME, WITH ATTACHED GARAGE AND PAVED DRIVEWAY.LD-201300025-WEST HIGHLANDS, PHASE 2, SECTION 2  - FINISHED SF       1944                                                                                                  -UNFINISHED SF    407                                                                                                                                 2351", "Latitude": 33.794182, "Longitude": -84.453685 }, "geometry": { "type": "Point", "coordinates": [ -84.453685, 33.794182 ] } },
{ "type": "Feature", "properties": { "fid": 97, "Date": "11/16/2021", "Address": "969 PARSONS ST SW, ATLANTA GA 30314", "Description": "ERECT NEW SINGLE FAMILY PER SAP-21-047 (APPROVED 10/21/21)", "Latitude": 33.751306, "Longitude": -84.419283 }, "geometry": { "type": "Point", "coordinates": [ -84.419283, 33.751306 ] } },
{ "type": "Feature", "properties": { "fid": 98, "Date": "11/15/2021", "Address": "695 MOORES MILL RD NW, ATLANTA GA 30327", "Description": "NEW SFR WITH 2 CAR GARAGE", "Latitude": 33.843349, "Longitude": -84.410368 }, "geometry": { "type": "Point", "coordinates": [ -84.410368, 33.843349 ] } },
{ "type": "Feature", "properties": { "fid": 99, "Date": "11/15/2021", "Address": "687 MOORES MILL RD NW, ATLANTA GA 30327", "Description": "NEW SFR WITH 2 CAR GARAGE", "Latitude": 33.843719, "Longitude": -84.410297 }, "geometry": { "type": "Point", "coordinates": [ -84.410297, 33.843719 ] } },
{ "type": "Feature", "properties": { "fid": 100, "Date": "11/15/2021", "Address": "679 MOORES MILL RD NW, ATLANTA GA 30327", "Description": "NEW SFR WITH 2 CAR GARAGE", "Latitude": 33.843837, "Longitude": -84.410036 }, "geometry": { "type": "Point", "coordinates": [ -84.410036, 33.843837 ] } },
{ "type": "Feature", "properties": { "fid": 101, "Date": "11/15/2021", "Address": "2372 ST JAMES DR NW, ATLANTA GA 30318", "Description": "NEW 2 STORY SINGLE FAMILY HOUSE WITH FRONT PORCH AND REAR PATIO", "Latitude": 33.785064, "Longitude": -84.466255 }, "geometry": { "type": "Point", "coordinates": [ -84.466255, 33.785064 ] } },
{ "type": "Feature", "properties": { "fid": 102, "Date": "11/15/2021", "Address": "818 FLAT SHOALS WAY SE, ATLANTA GA 30316", "Description": "NEW CONSTRUCTION:2500 SQFT, 4 BEDROOMS, 2.5 BATHROOMS, 2 CAR GARAGE./ INCLUDES SIDEWALK INSTALL (SCOPE updated 12.10.2021)", "Latitude": 33.732044, "Longitude": -84.331491 }, "geometry": { "type": "Point", "coordinates": [ -84.331491, 33.732044 ] } },
{ "type": "Feature", "properties": { "fid": 103, "Date": "11/15/2021", "Address": "1151 ARLINGTON AVE SW, ATLANTA GA 30310", "Description": "NEW SINGLE FAMILY", "Latitude": 33.72525, "Longitude": -84.425512 }, "geometry": { "type": "Point", "coordinates": [ -84.425512, 33.72525 ] } },
{ "type": "Feature", "properties": { "fid": 104, "Date": "11/15/2021", "Address": "951 DELMAR AVE SE, ATLANTA GA 30316", "Description": "BUILD NEW SFR", "Latitude": 33.731787, "Longitude": -84.356653 }, "geometry": { "type": "Point", "coordinates": [ -84.356653, 33.731787 ] } },
{ "type": "Feature", "properties": { "fid": 105, "Date": "11/15/2021", "Address": "2080 TIMBALL RD NW, ATLANTA GA 30318", "Description": "NEW 3-STORY SINGLE FAMILY DETACHED DWELLING.  TYPE VB CONSTRUCTION R-3, 4 BED ROOMS/4.5 BATHS.", "Latitude": 33.813099, "Longitude": -84.423429 }, "geometry": { "type": "Point", "coordinates": [ -84.423429, 33.813099 ] } },
{ "type": "Feature", "properties": { "fid": 106, "Date": "11/15/2021", "Address": "257 TIGER FLOWERS CIR NW, ATLANTA GA 30314", "Description": "NEW CONSTRUCTION OF A 3/2.5 SFR ON BASEMENT & CRAWLSPACE, W/2 CAR GARAGE, FRONT PORCH AND REAR COVERED DECK.", "Latitude": 33.761302, "Longitude": -84.457043 }, "geometry": { "type": "Point", "coordinates": [ -84.457043, 33.761302 ] } },
{ "type": "Feature", "properties": { "fid": 107, "Date": "11/12/2021", "Address": "570 THURMOND ST NW, ATLANTA GA 30314", "Description": "NEW DUPLEX ON EXISTING FOUNDATION", "Latitude": 33.761034, "Longitude": -84.406119 }, "geometry": { "type": "Point", "coordinates": [ -84.406119, 33.761034 ] } },
{ "type": "Feature", "properties": { "fid": 108, "Date": "11/12/2021", "Address": "37 WYMAN ST NE, ATLANTA GA 30317", "Description": "Construct new house with porches, deck, detached garage/guest house, driveway, and sidewalk.", "Latitude": 33.754522, "Longitude": -84.332738 }, "geometry": { "type": "Point", "coordinates": [ -84.332738, 33.754522 ] } },
{ "type": "Feature", "properties": { "fid": 109, "Date": "11/11/2021", "Address": "132 HILLSIDE AVE SE, ATLANTA GA 30315", "Description": "NEW TWO STORY HOUSE", "Latitude": 33.704264, "Longitude": -84.383761 }, "geometry": { "type": "Point", "coordinates": [ -84.383761, 33.704264 ] } },
{ "type": "Feature", "properties": { "fid": 110, "Date": "11/10/2021", "Address": "551 LYNHURST DR SW, ATLANTA GA 30311", "Description": "NEW CONSTRUCTION 2 STORY WITH UNFINISHED BASEMENT, 3-CARGARAGE, DECK AND FRONT PORCH. WORK INCLUDES ASSOCIATEDFRAMING, ELECTRICAL, PLUMBING, AND MECHANICAL.", "Latitude": 33.7402, "Longitude": -84.491725 }, "geometry": { "type": "Point", "coordinates": [ -84.491725, 33.7402 ] } },
{ "type": "Feature", "properties": { "fid": 111, "Date": "11/10/2021", "Address": "100 PARK AVE SE, ATLANTA GA 30315", "Description": "NEW BUILD, 3 STORY HOUSE", "Latitude": 33.71171, "Longitude": -84.385944 }, "geometry": { "type": "Point", "coordinates": [ -84.385944, 33.71171 ] } },
{ "type": "Feature", "properties": { "fid": 112, "Date": "11/10/2021", "Address": "1192 SHORE DR SW, ATLANTA GA 30311", "Description": "2100 SQFT. RESIDENTIAL HOME WITH BASEMENT BEING CONSTRUCTED", "Latitude": 33.723243, "Longitude": -84.481717 }, "geometry": { "type": "Point", "coordinates": [ -84.481717, 33.723243 ] } },
{ "type": "Feature", "properties": { "fid": 113, "Date": "11/10/2021", "Address": "39 PARK AVE SE, ATLANTA GA 30315", "Description": "New two story single family house with front and rear porch12-9-21_CONDITIONAL PLACARD REMOVAL_JBENTLEY", "Latitude": 33.712384, "Longitude": -84.38415 }, "geometry": { "type": "Point", "coordinates": [ -84.38415, 33.712384 ] } },
{ "type": "Feature", "properties": { "fid": 114, "Date": "11/10/2021", "Address": "142 PARK AVE SE, ATLANTA GA 30315", "Description": "New two story single family house with front and rear porch", "Latitude": 33.711717, "Longitude": -84.387782 }, "geometry": { "type": "Point", "coordinates": [ -84.387782, 33.711717 ] } },
{ "type": "Feature", "properties": { "fid": 115, "Date": "11/10/2021", "Address": "96 PARK AVE SE, ATLANTA GA 30315", "Description": "BUILD NEW TWO STORY HOUSE", "Latitude": 33.711716, "Longitude": -84.38578 }, "geometry": { "type": "Point", "coordinates": [ -84.38578, 33.711716 ] } },
{ "type": "Feature", "properties": { "fid": 116, "Date": "11/09/2021", "Address": "882 WOODMERE DR NW, ATLANTA GA 30318", "Description": "BUILDING FOR A NEW SINGLE-FAMILY RESIDENTIAL 2-STORY CRAWLSPACE HOUSE WITH 4 BEDROOMS, 3 BATHROOMS, FRONT PORCH, GARAGE AND BACK PATIO IN ACCORDANCE WITH R-3A SPECIFICATIONS.", "Latitude": 33.77934, "Longitude": -84.485584 }, "geometry": { "type": "Point", "coordinates": [ -84.485584, 33.77934 ] } },
{ "type": "Feature", "properties": { "fid": 117, "Date": "11/08/2021", "Address": "2428 BAKER RD NW, ATLANTA GA 30318", "Description": "Construct new single family home", "Latitude": 33.769254, "Longitude": -84.467289 }, "geometry": { "type": "Point", "coordinates": [ -84.467289, 33.769254 ] } },
{ "type": "Feature", "properties": { "fid": 118, "Date": "11/05/2021", "Address": "627 GRANT ST SE, ATLANTA GA 30312", "Description": "Construct new single family residence with basement. Includes a detached garage at basement level with gazebo above on main level. Gazebo connected to house by a breezeway. note: UDC approval has been obtained. CA3-20-344.", "Latitude": 33.73753, "Longitude": -84.376789 }, "geometry": { "type": "Point", "coordinates": [ -84.376789, 33.73753 ] } },
{ "type": "Feature", "properties": { "fid": 119, "Date": "11/04/2021", "Address": "2481 WARREN RD NW, ATLANTA GA 30318", "Description": "NEW SINGLE FAMILY ON EXISTING FOUNDATION INCULDING POUCH AND DRIVEWAY", "Latitude": 33.823509, "Longitude": -84.445677 }, "geometry": { "type": "Point", "coordinates": [ -84.445677, 33.823509 ] } },
{ "type": "Feature", "properties": { "fid": 120, "Date": "11/04/2021", "Address": "649 HOME AVE SE, ATLANTA GA 30312", "Description": "NEW DUPLEX", "Latitude": 33.729136, "Longitude": -84.366853 }, "geometry": { "type": "Point", "coordinates": [ -84.366853, 33.729136 ] } },
{ "type": "Feature", "properties": { "fid": 121, "Date": "11/03/2021", "Address": "658 WEST VALLEY CT NW, ATLANTA GA 30327", "Description": "NSF two story/5 bedrooms 5 full and 2 half baths/unfinished basement. Related to LD-201900053", "Latitude": 33.873827, "Longitude": -84.410839 }, "geometry": { "type": "Point", "coordinates": [ -84.410839, 33.873827 ] } },
{ "type": "Feature", "properties": { "fid": 122, "Date": "11/03/2021", "Address": "1533 ENGLISH ST NW, ATLANTA GA 30318", "Description": "Construction if a new Single family home with attached garage.  LD-201600064", "Latitude": 33.793758, "Longitude": -84.423432 }, "geometry": { "type": "Point", "coordinates": [ -84.423432, 33.793758 ] } },
{ "type": "Feature", "properties": { "fid": 123, "Date": "11/03/2021", "Address": "949 BRUCE CIR SE, ATLANTA GA 30316", "Description": "Construction of a New Single Family Resident", "Latitude": 33.715333, "Longitude": -84.357535 }, "geometry": { "type": "Point", "coordinates": [ -84.357535, 33.715333 ] } },
{ "type": "Feature", "properties": { "fid": 124, "Date": "11/03/2021", "Address": "240 PATTERSON AVE SE, ATLANTA GA 30316", "Description": "NEW SINGLE FAMILY RESIDENCE. CONSTRUCTION TO BE COMBINATION OF SHIPPING CONTAINERS AND TRADITIONAL STICK BUILD.", "Latitude": 33.74689, "Longitude": -84.34285 }, "geometry": { "type": "Point", "coordinates": [ -84.34285, 33.74689 ] } },
{ "type": "Feature", "properties": { "fid": 125, "Date": "11/02/2021", "Address": "3940 IVY RD NE, ATLANTA GA 30342", "Description": "New residence is a master on main, 4 bedrooms up and partially finished basement.", "Latitude": 33.862618, "Longitude": -84.371161 }, "geometry": { "type": "Point", "coordinates": [ -84.371161, 33.862618 ] } },
{ "type": "Feature", "properties": { "fid": 126, "Date": "11/02/2021", "Address": "1471 OLIVE ST SW, ATLANTA GA 30310", "Description": "New Construction of a one-story, three bedroom home with a front porch, side stoop, and driveway", "Latitude": 33.71485, "Longitude": -84.431699 }, "geometry": { "type": "Point", "coordinates": [ -84.431699, 33.71485 ] } },
{ "type": "Feature", "properties": { "fid": 127, "Date": "11/01/2021", "Address": "1100 WEDGEWOOD DR NW, ATLANTA GA 30318", "Description": "NEW TWO STORY SINGLE HOUSE, FRONT PORCH, REAR DECK", "Latitude": 33.78515, "Longitude": -84.476123 }, "geometry": { "type": "Point", "coordinates": [ -84.476123, 33.78515 ] } },
{ "type": "Feature", "properties": { "fid": 128, "Date": "11/01/2021", "Address": "1089 COLEMAN ST SW, ATLANTA GA 30310", "Description": "ERIC NEW SINGLE FAMILY DWELLING", "Latitude": 33.725178, "Longitude": -84.404228 }, "geometry": { "type": "Point", "coordinates": [ -84.404228, 33.725178 ] } },
{ "type": "Feature", "properties": { "fid": 129, "Date": "11/01/2021", "Address": "1991 HOLLYWOOD RD NW, ATLANTA GA 30318", "Description": "LD-201900034 NEW THREE STORY DUPLEX 3,584 SF WITH A BALCONY WITH TWO CAR GARAGE UNITS 42 & 43", "Latitude": 33.80995, "Longitude": -84.471588 }, "geometry": { "type": "Point", "coordinates": [ -84.471588, 33.80995 ] } },
{ "type": "Feature", "properties": { "fid": 130, "Date": "11/01/2021", "Address": "1991 HOLLYWOOD RD NW, ATLANTA GA 30318", "Description": "LD-201900034 NEW THREE STORY DUPLEX 3,584 SF WITH A BALCONY WITH TWO CAR GARAGE UNIT 40 & 41", "Latitude": 33.80995, "Longitude": -84.471588 }, "geometry": { "type": "Point", "coordinates": [ -84.471588, 33.80995 ] } },
{ "type": "Feature", "properties": { "fid": 131, "Date": "11/01/2021", "Address": "630 BROADLAND RD NW, ATLANTA GA 30327", "Description": "NEW SINGLE FAMILY WITH RETAINING WALL", "Latitude": 33.862777, "Longitude": -84.40866 }, "geometry": { "type": "Point", "coordinates": [ -84.40866, 33.862777 ] } },
{ "type": "Feature", "properties": { "fid": 132, "Date": "11/01/2021", "Address": "311 LINCOLN ST SW, ATLANTA GA 30315", "Description": "CONSTRUCT A  3 BEDROOM 2.5 BATH, TWO STORY HOME ON A VACANT LOT", "Latitude": 33.713445, "Longitude": -84.399181 }, "geometry": { "type": "Point", "coordinates": [ -84.399181, 33.713445 ] } },
{ "type": "Feature", "properties": { "fid": 133, "Date": "11/01/2021", "Address": "3580 DUMBARTON RD NW, ATLANTA GA 30327", "Description": "Renovate entire main floor, renovate existing carport for new heated mud and pantry areas. Add 182sf additionto kitchen, remove existing front porch, and add new covered front porch. new stairs, replace windows add newsecond story, 4 bedrooms, 4 bathrooms new laundry new unheated attic renovate existing basement we will be keeping main structure, see related demo permit for demolished portions.", "Latitude": 33.853259, "Longitude": -84.416335 }, "geometry": { "type": "Point", "coordinates": [ -84.416335, 33.853259 ] } },
{ "type": "Feature", "properties": { "fid": 134, "Date": "11/01/2021", "Address": "2460 HOWELL MILL RD NW, ATLANTA GA 30318", "Description": "New Single family detached house on a currently vacant lot", "Latitude": 33.822943, "Longitude": -84.416276 }, "geometry": { "type": "Point", "coordinates": [ -84.416276, 33.822943 ] } },
{ "type": "Feature", "properties": { "fid": 135, "Date": "10/31/2021", "Address": "2197 WILSON AVE NW, ATLANTA GA 30314", "Description": "SHIPPING CONTAINER HOUSE (SFR):  THIS IS A NEW SINGLE FAMILY SHIPPING CONTAINER HOME.  IT INCLUDES BUILDING THE STRUCTURE AND HAS MECHANICAL, ELECTRICAL, AND PLUMBING WORK.", "Latitude": 33.753567, "Longitude": -84.459694 }, "geometry": { "type": "Point", "coordinates": [ -84.459694, 33.753567 ] } },
{ "type": "Feature", "properties": { "fid": 136, "Date": "10/29/2021", "Address": "155 WELLINGTON ST SW, ATLANTA GA 30314", "Description": "Construct new Single Family Residence", "Latitude": 33.750966, "Longitude": -84.438557 }, "geometry": { "type": "Point", "coordinates": [ -84.438557, 33.750966 ] } },
{ "type": "Feature", "properties": { "fid": 137, "Date": "10/29/2021", "Address": "854 WESTMONT RD SW, ATLANTA GA 30311", "Description": "Construct new single family home. All M.E.P.s", "Latitude": 33.731897, "Longitude": -84.437057 }, "geometry": { "type": "Point", "coordinates": [ -84.437057, 33.731897 ] } },
{ "type": "Feature", "properties": { "fid": 138, "Date": "10/29/2021", "Address": "2353 NORTH CIRCLE DR NW, ATLANTA GA 30318", "Description": "NEW TWO STORY SINGLE FAMILY HOUSE WITH UNFINISHED BASEMENT, FRONT COVERED PORCH, REAR DECK, REAR PATIO", "Latitude": 33.78731, "Longitude": -84.465104 }, "geometry": { "type": "Point", "coordinates": [ -84.465104, 33.78731 ] } },
{ "type": "Feature", "properties": { "fid": 139, "Date": "10/28/2021", "Address": "914 BUCKINGHAM CIR NW, ATLANTA GA 30327", "Description": "NEW CONSTRUCTION OF A SINGLE FAMILY HOME ON UNFINISHED BASEMENT", "Latitude": 33.857928, "Longitude": -84.421049 }, "geometry": { "type": "Point", "coordinates": [ -84.421049, 33.857928 ] } },
{ "type": "Feature", "properties": { "fid": 140, "Date": "10/28/2021", "Address": "1118 ERICA WAY SE, ATLANTA 30354", "Description": "NEW SINGLE FAMILY HOME - MODEL HOME - PARKING PAD ON LOT 4, (RELATED TO BB-202101908 Oakshire Resurrection Street Tree Plan)", "Latitude": 33.654362, "Longitude": -84.355256 }, "geometry": { "type": "Point", "coordinates": [ -84.355256, 33.654362 ] } },
{ "type": "Feature", "properties": { "fid": 141, "Date": "10/28/2021", "Address": "582 GLENWOOD PL SE, ATLANTA GA 30316", "Description": "CONSTRUCT NSFR WITH PORCHES,ATTACHED GARAGE,DRIVEWAY AND WALKS", "Latitude": 33.738436, "Longitude": -84.354543 }, "geometry": { "type": "Point", "coordinates": [ -84.354543, 33.738436 ] } },
{ "type": "Feature", "properties": { "fid": 142, "Date": "10/28/2021", "Address": "314 FORTUNE ST NE, ATLANTA GA 30312", "Description": "Groundup construction of three story duplex unit A&B with rooftop access. The total Sq. Ft. of heated space for both sides is 4370 Ft; Each side will be 2185 SQ. FT. of heated space. Each side of the duplex will have three bedrooms and three bathrooms", "Latitude": 33.762769, "Longitude": -84.366982 }, "geometry": { "type": "Point", "coordinates": [ -84.366982, 33.762769 ] } },
{ "type": "Feature", "properties": { "fid": 143, "Date": "10/28/2021", "Address": "1991 HOLLYWOOD RD NW, ATLANTA GA 30318", "Description": "LD-201900034       NEW THREE STORY DUPLEX 3,678 SF WITH A BALCONY WITH TWO CAR GARAGE", "Latitude": 33.80995, "Longitude": -84.471588 }, "geometry": { "type": "Point", "coordinates": [ -84.471588, 33.80995 ] } },
{ "type": "Feature", "properties": { "fid": 144, "Date": "10/28/2021", "Address": "1991 HOLLYWOOD RD NW, ATLANTA GA 30318", "Description": "LD-201900034  3,678SF   NEW THREE STORY DUPLEX 3,678 SF WITH A BALCONY WITH TWO CAR GARAGE UNITS 38 & 39", "Latitude": 33.80995, "Longitude": -84.471588 }, "geometry": { "type": "Point", "coordinates": [ -84.471588, 33.80995 ] } },
{ "type": "Feature", "properties": { "fid": 145, "Date": "10/26/2021", "Address": "821 WELCH ST SW, ATLANTA GA 30310", "Description": "CONSTRUCTION I=OF NEW SINGLE FAMILY", "Latitude": 33.732651, "Longitude": -84.404941 }, "geometry": { "type": "Point", "coordinates": [ -84.404941, 33.732651 ] } },
{ "type": "Feature", "properties": { "fid": 146, "Date": "10/26/2021", "Address": "672 WEST VALLEY CT NW, ATLANTA GA 30327", "Description": "NEW 2 STORY SINGLE FAMILY HOUSE WITH 3 CAR GARAGE, FINISHED BASMENT FINISH ATTIC, COVERED PORCH & TERRACE. RETAINNING WALL. POOL WILL BE ON SEPERATE PERMIT. Related to LD-201900053", "Latitude": 33.87383, "Longitude": -84.411416 }, "geometry": { "type": "Point", "coordinates": [ -84.411416, 33.87383 ] } },
{ "type": "Feature", "properties": { "fid": 147, "Date": "10/26/2021", "Address": "1144 ERICA WAY SE, ATLANTA GA 30354", "Description": "New Single Family, (RELATED TO BB-202101908 Oakshire Resurrection Street Tree Plan)", "Latitude": 33.653332, "Longitude": -84.35425 }, "geometry": { "type": "Point", "coordinates": [ -84.35425, 33.653332 ] } },
{ "type": "Feature", "properties": { "fid": 148, "Date": "10/26/2021", "Address": "1057 MACKETS CT SE, ATLANTA GA 30354", "Description": "New Single Family, (RELATED TO BB-202101908 Oakshire Resurrection Street Tree Plan)", "Latitude": 33.653047, "Longitude": -84.354619 }, "geometry": { "type": "Point", "coordinates": [ -84.354619, 33.653047 ] } },
{ "type": "Feature", "properties": { "fid": 149, "Date": "10/26/2021", "Address": "1061 MACKETS CT SE, ATLANTA GA 30354", "Description": "New Single Family, (RELATED TO BB-202101908 Oakshire Resurrection Street Tree Plan)", "Latitude": 33.652807, "Longitude": -84.354674 }, "geometry": { "type": "Point", "coordinates": [ -84.354674, 33.652807 ] } },
{ "type": "Feature", "properties": { "fid": 150, "Date": "10/26/2021", "Address": "1611 STEELE DR NW, ATLANTA GA 30309", "Description": "Construction of new 3752 SF SFR on owners land. New residence will be wood frame, two story house on finished basement foundation. New residence will contains 5 bedrooms and 5 1/2 with a front porch. A swimming pool with a 6' fence with gate also added.", "Latitude": 33.798951, "Longitude": -84.402062 }, "geometry": { "type": "Point", "coordinates": [ -84.402062, 33.798951 ] } },
{ "type": "Feature", "properties": { "fid": 151, "Date": "10/26/2021", "Address": "857 PROCTOR ST NW, ATLANTA GA 30314", "Description": "New 2-story single family residence with front and rear porchSAP-21-139 Has already been approved", "Latitude": 33.765116, "Longitude": -84.415497 }, "geometry": { "type": "Point", "coordinates": [ -84.415497, 33.765116 ] } },
{ "type": "Feature", "properties": { "fid": 152, "Date": "10/25/2021", "Address": "1257 FRANCIS ST NW, ATLANTA GA 30318", "Description": "3-story Single Family Home with finished basement, rooftop decks, and front porch", "Latitude": 33.789169, "Longitude": -84.396458 }, "geometry": { "type": "Point", "coordinates": [ -84.396458, 33.789169 ] } },
{ "type": "Feature", "properties": { "fid": 153, "Date": "10/25/2021", "Address": "1464 EZRA CHURCH DR NW, ATLANTA GA 30314", "Description": "NEW 2 STORY SFR12-30-21_PLACARD REMOVAL_JBENTLEY", "Latitude": 33.75632, "Longitude": -84.435323 }, "geometry": { "type": "Point", "coordinates": [ -84.435323, 33.75632 ] } },
{ "type": "Feature", "properties": { "fid": 154, "Date": "10/25/2021", "Address": "1053 MACKETS CT SE, ATLANTA GA 30354", "Description": "NEW SINGLE FAMILY, (RELATED TO BB-202101908 Oakshire Resurrection Street Tree Plan)", "Latitude": 33.653261, "Longitude": -84.354616 }, "geometry": { "type": "Point", "coordinates": [ -84.354616, 33.653261 ] } },
{ "type": "Feature", "properties": { "fid": 155, "Date": "10/22/2021", "Address": "411 9TH ST NE, ATLANTA GA 30309", "Description": "NEW SINGE FAMILY, DETACHED GARAGE, AND GUEST UNIT.", "Latitude": 33.78028, "Longitude": -84.373766 }, "geometry": { "type": "Point", "coordinates": [ -84.373766, 33.78028 ] } },
{ "type": "Feature", "properties": { "fid": 156, "Date": "10/22/2021", "Address": "209 CORLEY ST NE, ATLANTA GA 30312", "Description": "Construction of new single family residence with front stoop and roof top deck.", "Latitude": 33.759905, "Longitude": -84.366095 }, "geometry": { "type": "Point", "coordinates": [ -84.366095, 33.759905 ] } },
{ "type": "Feature", "properties": { "fid": 157, "Date": "10/22/2021", "Address": "1858 SPRING AVE NW, ATLANTA GA 30318", "Description": "CONSTRUCTION OF NEW SINGLE FAMILY HOME", "Latitude": 33.806087, "Longitude": -84.448652 }, "geometry": { "type": "Point", "coordinates": [ -84.448652, 33.806087 ] } },
{ "type": "Feature", "properties": { "fid": 158, "Date": "10/21/2021", "Address": "105 PARK AVE SE, ATLANTA GA 30315", "Description": "NEW SINGLE FAMILY WITH FRONT AND REAR DECK", "Latitude": 33.712134, "Longitude": -84.386187 }, "geometry": { "type": "Point", "coordinates": [ -84.386187, 33.712134 ] } },
{ "type": "Feature", "properties": { "fid": 159, "Date": "10/21/2021", "Address": "2107 TIGER FLOWERS DR NW, ATLANTA GA 30314", "Description": "New construction of 3/2.5 SFR on crawlspace, with front porch and rear covered deck.", "Latitude": 33.760497, "Longitude": -84.456583 }, "geometry": { "type": "Point", "coordinates": [ -84.456583, 33.760497 ] } },
{ "type": "Feature", "properties": { "fid": 160, "Date": "10/21/2021", "Address": "1944 MARKONE ST NW, ATLANTA GA 30318", "Description": "New construction of a one story, four bedroom home with a front porch, side stoop and driveway.", "Latitude": 33.769549, "Longitude": -84.450605 }, "geometry": { "type": "Point", "coordinates": [ -84.450605, 33.769549 ] } },
{ "type": "Feature", "properties": { "fid": 161, "Date": "10/21/2021", "Address": "4109 STATEWOOD RD NE, ATLANTA GA 30342", "Description": "New single family residence with first and second floor with an unfinished basement. two car attached garage.", "Latitude": 33.867304, "Longitude": -84.366683 }, "geometry": { "type": "Point", "coordinates": [ -84.366683, 33.867304 ] } },
{ "type": "Feature", "properties": { "fid": 162, "Date": "10/21/2021", "Address": "1152 ERICA WAY SE, ATLANTA GA 30354", "Description": "NSF- Galen - A! porch plan/ unfinished basement /Lt garage front entry, (RELATED TO BB-202101908 Oakshire Resurrection Street Tree Plan)", "Latitude": 33.652945, "Longitude": -84.354149 }, "geometry": { "type": "Point", "coordinates": [ -84.354149, 33.652945 ] } },
{ "type": "Feature", "properties": { "fid": 163, "Date": "10/20/2021", "Address": "11 EDWIN PL NW, ATLANTA GA 30318", "Description": "NEW SINGLE FAMILY RESIDENCE", "Latitude": 33.777064, "Longitude": -84.448062 }, "geometry": { "type": "Point", "coordinates": [ -84.448062, 33.777064 ] } },
{ "type": "Feature", "properties": { "fid": 164, "Date": "10/20/2021", "Address": "1763 BOLTON RD NW, ATLANTA GA 30318", "Description": "NEW 2 STORY MAIN DWELLING 1800 SQFT WITH PATIO, 1 STORY ACCESSORY DWELLING 750 SQFT.", "Latitude": 33.802815, "Longitude": -84.484158 }, "geometry": { "type": "Point", "coordinates": [ -84.484158, 33.802815 ] } },
{ "type": "Feature", "properties": { "fid": 165, "Date": "10/20/2021", "Address": "88 INTERLOCHEN DR NE, ATLANTA GA 30342", "Description": "A NEW SINGLE FAMILY RESIDENCE FOR THE BOATWRIGHT FAMILY", "Latitude": 33.86935, "Longitude": -84.384786 }, "geometry": { "type": "Point", "coordinates": [ -84.384786, 33.86935 ] } },
{ "type": "Feature", "properties": { "fid": 166, "Date": "10/20/2021", "Address": "1086 RIGBY CT SE, ATLANTA GA 30354", "Description": "New single family plan: Belhaven/slab lot rt garage, Front entry, A1 porch-  rear deck stem wall.", "Latitude": 33.652513, "Longitude": -84.354931 }, "geometry": { "type": "Point", "coordinates": [ -84.354931, 33.652513 ] } },
{ "type": "Feature", "properties": { "fid": 167, "Date": "10/20/2021", "Address": "1074 RIGBY CT SE, ATLANTA GA 30354", "Description": "New single family plan: Belhaven/ basement / rt garage/ FA entry A1 porch with rear deck", "Latitude": 33.652452, "Longitude": -84.354229 }, "geometry": { "type": "Point", "coordinates": [ -84.354229, 33.652452 ] } },
{ "type": "Feature", "properties": { "fid": 168, "Date": "10/20/2021", "Address": "1156 ERICA WAY SE, ATLANTA GA 30354", "Description": "New single family plan: Belhaven/slab lot rt garage, Front entry, A1 Stoop/rear deck, (RELATED TO BB-202101908 Oakshire Resurrection Street Tree Plan)", "Latitude": 33.652713, "Longitude": -84.354123 }, "geometry": { "type": "Point", "coordinates": [ -84.354123, 33.652713 ] } },
{ "type": "Feature", "properties": { "fid": 169, "Date": "10/20/2021", "Address": "2208 TELHURST ST SW, ATLANTA GA 30310", "Description": "New construction of a single family home. Construction will consist of  concrete footings, foundation walls, wood framing, siding, roofing, flooring, sheetrock, mechanical systems and fixtures.", "Latitude": 33.749618, "Longitude": -84.460395 }, "geometry": { "type": "Point", "coordinates": [ -84.460395, 33.749618 ] } },
{ "type": "Feature", "properties": { "fid": 170, "Date": "10/20/2021", "Address": "1078 RIGBY CT SE, ATLANTA GA 30354", "Description": "NSF: Hayden A1stoop plan slab lot ft garage front entry", "Latitude": 33.652455, "Longitude": -84.354471 }, "geometry": { "type": "Point", "coordinates": [ -84.354471, 33.652455 ] } },
{ "type": "Feature", "properties": { "fid": 171, "Date": "10/20/2021", "Address": "1092 RIGBY CT SE, ATLANTA GA 30354", "Description": "NSF: Hayden A1 stoop slab lot rt garage front entry", "Latitude": 33.652588, "Longitude": -84.355158 }, "geometry": { "type": "Point", "coordinates": [ -84.355158, 33.652588 ] } },
{ "type": "Feature", "properties": { "fid": 172, "Date": "10/20/2021", "Address": "1140 ERICA WAY SE, ATLANTA GA 30354", "Description": "NSF- Vivian/A1 Porch/ slab lot/ LT garage/ front entry. (RELATED TO BB-202101908 Oakshire Resurrection Street Tree Plan).", "Latitude": 33.653479, "Longitude": -84.354498 }, "geometry": { "type": "Point", "coordinates": [ -84.354498, 33.653479 ] } },
{ "type": "Feature", "properties": { "fid": 173, "Date": "10/20/2021", "Address": "3502 OAKSHIRE WAY SE, ATLANTA GA 30354", "Description": "NSF Kerry/ slab/ rt garage/ front entry, A1 stoop- rear porch", "Latitude": 33.654734, "Longitude": -84.355781 }, "geometry": { "type": "Point", "coordinates": [ -84.355781, 33.654734 ] } },
{ "type": "Feature", "properties": { "fid": 174, "Date": "10/19/2021", "Address": "1986 MEMORIAL DR SE, ATLANTA GA 30317", "Description": "NEW CONSTRCTION OF 2 STORY SINGLE FAMILY", "Latitude": 33.747645, "Longitude": -84.322624 }, "geometry": { "type": "Point", "coordinates": [ -84.322624, 33.747645 ] } },
{ "type": "Feature", "properties": { "fid": 175, "Date": "10/19/2021", "Address": "274 WEST PACES FERRY RD NW, ATLANTA GA 30305", "Description": "CONSTRUCTION ON NEW SFR- 2 STORIES W/BASEMENT, 4 CAR GARAGE & SWIMMING POOL.", "Latitude": 33.843629, "Longitude": -84.394889 }, "geometry": { "type": "Point", "coordinates": [ -84.394889, 33.843629 ] } },
{ "type": "Feature", "properties": { "fid": 176, "Date": "10/19/2021", "Address": "2421 PAUL AVE, ATLANTA GA 00000", "Description": "NEW 2 STORY MAIN DWELLING 1800 SQFT WITH PATIO, ONE STORY ACCESSORY DWELLING 750 SQFT & ONE STORY ACCESSORY DWELLING 533.", "Latitude": 33.820284, "Longitude": -84.473903 }, "geometry": { "type": "Point", "coordinates": [ -84.473903, 33.820284 ] } },
{ "type": "Feature", "properties": { "fid": 177, "Date": "10/19/2021", "Address": "1209 ZIMMER DR NE, ATLANTA GA 30306", "Description": "Construction of new SFR", "Latitude": 33.792297, "Longitude": -84.347534 }, "geometry": { "type": "Point", "coordinates": [ -84.347534, 33.792297 ] } },
{ "type": "Feature", "properties": { "fid": 178, "Date": "10/18/2021", "Address": "1070 RIGBY CT SE, ATLANTA GA 30354", "Description": "NEW SINGLE FAMILY/ UNFINISHED BASEMENT", "Latitude": 33.65247, "Longitude": -84.35398 }, "geometry": { "type": "Point", "coordinates": [ -84.35398, 33.65247 ] } },
{ "type": "Feature", "properties": { "fid": 179, "Date": "10/18/2021", "Address": "1148 ERICA WAY SE, ATLANTA GA 30354", "Description": "NEW SINGLE FAMILY /UNFINISHED BASMENT, (RELATED TO BB-202101908 Oakshire Resurrection Street Tree Plan)", "Latitude": 33.653147, "Longitude": -84.354118 }, "geometry": { "type": "Point", "coordinates": [ -84.354118, 33.653147 ] } },
{ "type": "Feature", "properties": { "fid": 180, "Date": "10/18/2021", "Address": "1102 MORLEY AVE SE, ATLANTA GA 30312", "Description": "CONSTRUCT A NEW SINGLE FAMILY RESIEDNCE WITH COVERED ON VACANT LOT", "Latitude": 33.724667, "Longitude": -84.365217 }, "geometry": { "type": "Point", "coordinates": [ -84.365217, 33.724667 ] } },
{ "type": "Feature", "properties": { "fid": 181, "Date": "10/15/2021", "Address": "1082 RIGBY CT SE, ATLANTA GA 30354", "Description": "NEW SINGLE FAMILY", "Latitude": 33.652469, "Longitude": -84.354706 }, "geometry": { "type": "Point", "coordinates": [ -84.354706, 33.652469 ] } },
{ "type": "Feature", "properties": { "fid": 182, "Date": "10/15/2021", "Address": "3561 OAKSHIRE WAY SE, ATLANTA GA 30354", "Description": "NEW SINGLE FAMILY", "Latitude": 33.656585, "Longitude": -84.351732 }, "geometry": { "type": "Point", "coordinates": [ -84.351732, 33.656585 ] } },
{ "type": "Feature", "properties": { "fid": 183, "Date": "10/15/2021", "Address": "975 SIMS AVE NW, ATLANTA GA 30318", "Description": "SCOPE UPDATED 12.13.2021 TO INCLUDE SIDEWALK INSTALLATIONNEW TWO STORY SINGLE FAMILY HOUSE WITH UNFINISHED BASEMENT,FRONT PORCH, REAR DECK AND PATIO", "Latitude": 33.781178, "Longitude": -84.453444 }, "geometry": { "type": "Point", "coordinates": [ -84.453444, 33.781178 ] } },
{ "type": "Feature", "properties": { "fid": 184, "Date": "10/15/2021", "Address": "534 MARY ST SW, ATLANTA GA 30310", "Description": "CONSTRUCTION OF NEW 2000 SQ FT SINGLE FAMILY HOME", "Latitude": 33.729003, "Longitude": -84.405474 }, "geometry": { "type": "Point", "coordinates": [ -84.405474, 33.729003 ] } },
{ "type": "Feature", "properties": { "fid": 185, "Date": "10/13/2021", "Address": "490 QUILLIAN AVE SE, ATLANTA GA 30317", "Description": "RESIDENTIAL NEW CONSTRUCTION OF 2 STORY DUPLEX WITH GARAGES,COVERED FRONT PORCHES,BACK PATIOS, NEW DRIVEWAY & WALKWAYS.", "Latitude": 33.739523, "Longitude": -84.297568 }, "geometry": { "type": "Point", "coordinates": [ -84.297568, 33.739523 ] } },
{ "type": "Feature", "properties": { "fid": 186, "Date": "10/13/2021", "Address": "153 VINE ST NW, ATLANTA GA 30314", "Description": "PROPOSED SFR WITH ATTACHED GARAGE.", "Latitude": 33.758809, "Longitude": -84.407628 }, "geometry": { "type": "Point", "coordinates": [ -84.407628, 33.758809 ] } },
{ "type": "Feature", "properties": { "fid": 187, "Date": "10/12/2021", "Address": "399 HASCALL RD NW, ATLANTA GA 30309", "Description": "Build New 2 story residence, Double car garage- slab foundation- wood frame- 4 bedrooms- 3.5 bathrooms.", "Latitude": 33.797334, "Longitude": -84.401084 }, "geometry": { "type": "Point", "coordinates": [ -84.401084, 33.797334 ] } },
{ "type": "Feature", "properties": { "fid": 188, "Date": "10/11/2021", "Address": "465 WEST KILDARE AVE NW, ATLANTA GA 30318", "Description": "CONSTRUCTION OF NEW SINGLE FAMILY", "Latitude": 33.768094, "Longitude": -84.487745 }, "geometry": { "type": "Point", "coordinates": [ -84.487745, 33.768094 ] } },
{ "type": "Feature", "properties": { "fid": 189, "Date": "10/11/2021", "Address": "473 WEST KILDARE AVE NW, ATLANTA GA 30318", "Description": "CONSTRUCTION OF NEW SINGLE FAMILY", "Latitude": 33.76835, "Longitude": -84.487814 }, "geometry": { "type": "Point", "coordinates": [ -84.487814, 33.76835 ] } },
{ "type": "Feature", "properties": { "fid": 190, "Date": "10/11/2021", "Address": "481 WEST KILDARE AVE NW, ATLANTA GA 30318", "Description": "CONSTRUCTION OF NEW SINGLE FAMILY", "Latitude": 33.76859, "Longitude": -84.487941 }, "geometry": { "type": "Point", "coordinates": [ -84.487941, 33.76859 ] } },
{ "type": "Feature", "properties": { "fid": 191, "Date": "10/11/2021", "Address": "489 WEST KILDARE AVE NW, ATLANTA GA 30318", "Description": "CONSTRUCTION OF NEW SINGLE FAMILY", "Latitude": 33.768812, "Longitude": -84.488084 }, "geometry": { "type": "Point", "coordinates": [ -84.488084, 33.768812 ] } },
{ "type": "Feature", "properties": { "fid": 192, "Date": "10/11/2021", "Address": "492 WEST KILDARE AVE NW, ATLANTA GA 30318", "Description": "CONSTRUCTION OF SINGLE FAMILY HOME", "Latitude": 33.768603, "Longitude": -84.488804 }, "geometry": { "type": "Point", "coordinates": [ -84.488804, 33.768603 ] } },
{ "type": "Feature", "properties": { "fid": 193, "Date": "10/11/2021", "Address": "1042 MCLYNN AVE NE, ATLANTA GA 30306", "Description": "CONSTRUCT NEW TWO-STORY SINGLE-FAMILY HOME WITH BASEMENT AND ATTACHED TWO-CAR GARAGE. POOL SEPARATE PERMIT", "Latitude": 33.789, "Longitude": -84.352997 }, "geometry": { "type": "Point", "coordinates": [ -84.352997, 33.789 ] } },
{ "type": "Feature", "properties": { "fid": 194, "Date": "10/11/2021", "Address": "458 PLAINVILLE DR SW, ATLANTA GA 30331", "Description": "NEW HOUSE", "Latitude": 33.741271, "Longitude": -84.516081 }, "geometry": { "type": "Point", "coordinates": [ -84.516081, 33.741271 ] } },
{ "type": "Feature", "properties": { "fid": 195, "Date": "10/11/2021", "Address": "540 WILLARD AVE SW, ATLANTA GA 30310", "Description": "Construction of new, 3 story, single family residence including mechanical, electrical and plumbing.", "Latitude": 33.740335, "Longitude": -84.436402 }, "geometry": { "type": "Point", "coordinates": [ -84.436402, 33.740335 ] } },
{ "type": "Feature", "properties": { "fid": 196, "Date": "10/10/2021", "Address": "845 MARCUS ST SE, ATLANTA GA 30316", "Description": "SECOND STORY ADDITION/ INTERIOR RENOVATION", "Latitude": 33.750621, "Longitude": -84.359607 }, "geometry": { "type": "Point", "coordinates": [ -84.359607, 33.750621 ] } },
{ "type": "Feature", "properties": { "fid": 197, "Date": "10/08/2021", "Address": "569 MIDDLE ST SW, ATLANTA GA 30310", "Description": "ERECT NEW 2 STORY SINGLE FAMILY DWELLING", "Latitude": 33.732908, "Longitude": -84.406505 }, "geometry": { "type": "Point", "coordinates": [ -84.406505, 33.732908 ] } },
{ "type": "Feature", "properties": { "fid": 198, "Date": "10/07/2021", "Address": "2760 LENOX RD NE, ATLANTA GA 30324", "Description": "Construction of new 3 story single family dwelling.", "Latitude": 33.829916, "Longitude": -84.355605 }, "geometry": { "type": "Point", "coordinates": [ -84.355605, 33.829916 ] } },
{ "type": "Feature", "properties": { "fid": 199, "Date": "10/07/2021", "Address": "2137 MCKINLEY RD NW, ATLANTA GA 30318", "Description": "New Construction SF residence with partially finished basement and garage. Screened n porch and grill deck, retaining walls", "Latitude": 33.813386, "Longitude": -84.409855 }, "geometry": { "type": "Point", "coordinates": [ -84.409855, 33.813386 ] } },
{ "type": "Feature", "properties": { "fid": 200, "Date": "10/07/2021", "Address": "2959 ROCKINGHAM DR NW, ATLANTA GA 30327", "Description": "Construct 2 story single family house with basement, covered porch, and uncovered terrace.", "Latitude": 33.835786, "Longitude": -84.412811 }, "geometry": { "type": "Point", "coordinates": [ -84.412811, 33.835786 ] } },
{ "type": "Feature", "properties": { "fid": 201, "Date": "10/06/2021", "Address": "33 GOULD ST SE, ATLANTA GA 30315", "Description": "NEW CONSTRUCTION OF 2 STORY, FOUR BEDROOM HOME WITH FRONT POURCH, SIDE STOOP AND DRIVEWAY", "Latitude": 33.707091, "Longitude": -84.377013 }, "geometry": { "type": "Point", "coordinates": [ -84.377013, 33.707091 ] } },
{ "type": "Feature", "properties": { "fid": 202, "Date": "10/06/2021", "Address": "983 CAMILLA ST SW, ATLANTA GA 30314", "Description": "NEW TWO DUPLEX UNITS, THREE LEVEL ONE CAR GARAGE EACH.", "Latitude": 33.750617, "Longitude": -84.419777 }, "geometry": { "type": "Point", "coordinates": [ -84.419777, 33.750617 ] } },
{ "type": "Feature", "properties": { "fid": 203, "Date": "10/05/2021", "Address": "960 NORTH EUGENIA PL NW, ATLANTA GA 30318", "Description": "NEW CONSTRUCTION ON ONE STORY OVER BASMENT, DETACHED GARAGE., POOL ON SEPERATE PERMIT.", "Latitude": 33.781425, "Longitude": -84.452279 }, "geometry": { "type": "Point", "coordinates": [ -84.452279, 33.781425 ] } },
{ "type": "Feature", "properties": { "fid": 204, "Date": "10/05/2021", "Address": "1660 RICHMOND AVE SE, ATLANTA GA 30315", "Description": "New Construction of a one-story, three bedroom home with a front porch, side stoop, and driveway", "Latitude": 33.709522, "Longitude": -84.378724 }, "geometry": { "type": "Point", "coordinates": [ -84.378724, 33.709522 ] } },
{ "type": "Feature", "properties": { "fid": 205, "Date": "10/05/2021", "Address": "3291 WEST ROXBORO RD NE, ATLANTA GA 30324", "Description": "Construct new house with porches, driveway, retaining wall, fence and walks.", "Latitude": 33.844328, "Longitude": -84.349406 }, "geometry": { "type": "Point", "coordinates": [ -84.349406, 33.844328 ] } },
{ "type": "Feature", "properties": { "fid": 206, "Date": "10/04/2021", "Address": "693 RALPH MCGILL BLVD NE, ATLANTA GA 30312", "Description": "CONSTRUCT NSFR ON VACANT LOT. WORK INCLUDEDS COVERED FRONT PORCH & ROOF TERRACE.", "Latitude": 33.764842, "Longitude": -84.364482 }, "geometry": { "type": "Point", "coordinates": [ -84.364482, 33.764842 ] } },
{ "type": "Feature", "properties": { "fid": 207, "Date": "10/04/2021", "Address": "135 DAHLGREN ST SE, ATLANTA GA 30317", "Description": "NSF", "Latitude": 33.749631, "Longitude": -84.345718 }, "geometry": { "type": "Point", "coordinates": [ -84.345718, 33.749631 ] } },
{ "type": "Feature", "properties": { "fid": 208, "Date": "10/01/2021", "Address": "454 BEVERLY RD NE, ATLANTA GA 30309", "Description": "NEW HOME 4412 SQ FEET", "Latitude": 33.797987, "Longitude": -84.374219 }, "geometry": { "type": "Point", "coordinates": [ -84.374219, 33.797987 ] } },
{ "type": "Feature", "properties": { "fid": 209, "Date": "10/01/2021", "Address": "798 BENDER ST SW, ATLANTA GA 30310", "Description": "SINGLE FAMILY ON VACANT LOT", "Latitude": 33.733137, "Longitude": -84.406647 }, "geometry": { "type": "Point", "coordinates": [ -84.406647, 33.733137 ] } },
{ "type": "Feature", "properties": { "fid": 210, "Date": "10/01/2021", "Address": "720 LILLIAN AVE SW, ATLANTA GA 30310", "Description": "SINGLE FAMILY RESIDENCE NEW CONSTRUCTION, 6FT PRIVACY FENCE, BALCONIES/PORCHES/DECKS", "Latitude": 33.730921, "Longitude": -84.411324 }, "geometry": { "type": "Point", "coordinates": [ -84.411324, 33.730921 ] } },
{ "type": "Feature", "properties": { "fid": 211, "Date": "09/30/2021", "Address": "1945 COMPTON DR SE, ATLANTA GA 30315", "Description": "1 STORY HOME ON CONCRETE SLAB FOUNDATION WITH FIBER CEMENT SIDING AND ASPHALT SHIGLES", "Latitude": 33.701065, "Longitude": -84.383051 }, "geometry": { "type": "Point", "coordinates": [ -84.383051, 33.701065 ] } },
{ "type": "Feature", "properties": { "fid": 212, "Date": "09/30/2021", "Address": "1268 KENILWORTH DR SW, ATLANTA GA 30310", "Description": "ew 2 Story Home, new electrical, new plumbing, new hvac, new doors, windows, roofing, drywall and paint, cabinets, fixtures, new rear deck, new privacy fence", "Latitude": 33.720466, "Longitude": -84.43379 }, "geometry": { "type": "Point", "coordinates": [ -84.43379, 33.720466 ] } },
{ "type": "Feature", "properties": { "fid": 213, "Date": "09/30/2021", "Address": "1998 DREW DR NW, ATLANTA GA 30318", "Description": "NEW SINGLE FAMILY WITH ATTACHED GARAGE      LD 201300025", "Latitude": 33.792979, "Longitude": -84.454901 }, "geometry": { "type": "Point", "coordinates": [ -84.454901, 33.792979 ] } },
{ "type": "Feature", "properties": { "fid": 214, "Date": "09/30/2021", "Address": "1318 CAMPBELLTON RD SW, ATLANTA GA 30310", "Description": "Construction of new SFR home on existing foundation with live-able attic space, new front porch, new rear deck", "Latitude": 33.715599, "Longitude": -84.431066 }, "geometry": { "type": "Point", "coordinates": [ -84.431066, 33.715599 ] } },
{ "type": "Feature", "properties": { "fid": 215, "Date": "09/29/2021", "Address": "297 GORDON AVE NE, ATLANTA GA 30307", "Description": "CONSTRUCTION OF 2  DUPLEX", "Latitude": 33.762439, "Longitude": -84.321366 }, "geometry": { "type": "Point", "coordinates": [ -84.321366, 33.762439 ] } },
{ "type": "Feature", "properties": { "fid": 216, "Date": "09/29/2021", "Address": "2211 MEADOR AVE SE, ATLANTA GA 30315", "Description": "NEW SINGLE FAMILY / 2 STORY / GARAGE", "Latitude": 33.693839, "Longitude": -84.380787 }, "geometry": { "type": "Point", "coordinates": [ -84.380787, 33.693839 ] } },
{ "type": "Feature", "properties": { "fid": 217, "Date": "09/29/2021", "Address": "2212 MEADOR AVE SE, ATLANTA GA 30315", "Description": "NEW SINGLE FAMILY / 2 STORY FULL BASEMENT", "Latitude": 33.694323, "Longitude": -84.380274 }, "geometry": { "type": "Point", "coordinates": [ -84.380274, 33.694323 ] } },
{ "type": "Feature", "properties": { "fid": 218, "Date": "09/28/2021", "Address": "595 CHURCH ST NW, ATLANTA GA 30318", "Description": "New construction of a single-family house with a front porch and driveway.", "Latitude": 33.771259, "Longitude": -84.46651 }, "geometry": { "type": "Point", "coordinates": [ -84.46651, 33.771259 ] } },
{ "type": "Feature", "properties": { "fid": 219, "Date": "09/27/2021", "Address": "68 LANNON AVE NE, ATLANTA GA 30317", "Description": "PROPOSED NEW TWO STORY SINGLE FAMILY HOME WITH 2 CAR GARAGE, REAR DECK AND COVERED FRONT PORCH", "Latitude": 33.753561, "Longitude": -84.297878 }, "geometry": { "type": "Point", "coordinates": [ -84.297878, 33.753561 ] } },
{ "type": "Feature", "properties": { "fid": 220, "Date": "09/27/2021", "Address": "4038 RIVERCHESS DR SW, ATLANTA GA 30331", "Description": "NEW CONSTRUCTION; SINGLE FAMILY HOUSE; LOT #117", "Latitude": 33.675811, "Longitude": -84.524114 }, "geometry": { "type": "Point", "coordinates": [ -84.524114, 33.675811 ] } },
{ "type": "Feature", "properties": { "fid": 221, "Date": "09/27/2021", "Address": "4037 RIVERCHESS DR SW, ATLANTA GA 30331", "Description": "NEW CONSTRUCTION; SINGLE FAMILY HOUSE; LOT #120", "Latitude": 33.676446, "Longitude": -84.523897 }, "geometry": { "type": "Point", "coordinates": [ -84.523897, 33.676446 ] } },
{ "type": "Feature", "properties": { "fid": 222, "Date": "09/27/2021", "Address": "2816 MONICA CT SW, ATLANTA GA 30311", "Description": "NEW SFR , BUILT OUT OF SHIPPING CONTAINERS", "Latitude": 33.741921, "Longitude": -84.480433 }, "geometry": { "type": "Point", "coordinates": [ -84.480433, 33.741921 ] } },
{ "type": "Feature", "properties": { "fid": 223, "Date": "09/24/2021", "Address": "287 GRIFFIN ST NW, ATLANTA GA 30314", "Description": "NSF on existing lot. Single story wood framed home with 3 bedrooms, 2 bathrooms. New home complies with all zoning requirements.", "Latitude": 33.762493, "Longitude": -84.410866 }, "geometry": { "type": "Point", "coordinates": [ -84.410866, 33.762493 ] } },
{ "type": "Feature", "properties": { "fid": 224, "Date": "09/24/2021", "Address": "260 MILLER REED AVE SE, ATLANTA GA 30315", "Description": "Construction of new 1,540 sq. ft. single family residence with 750 sq. ft. ADU", "Latitude": 33.715167, "Longitude": -84.379861 }, "geometry": { "type": "Point", "coordinates": [ -84.379861, 33.715167 ] } },
{ "type": "Feature", "properties": { "fid": 225, "Date": "09/24/2021", "Address": "194 WALLACE RD SW, ATLANTA GA 30354", "Description": "Construction of New Single Family home.", "Latitude": 33.667515, "Longitude": -84.396393 }, "geometry": { "type": "Point", "coordinates": [ -84.396393, 33.667515 ] } },
{ "type": "Feature", "properties": { "fid": 226, "Date": "09/24/2021", "Address": "1008 HERNDON ST NW, ATLANTA GA 30318", "Description": "Owner desires to build a personal residence with detached garage to live in a permanent residence. House will be three stories with 4 bedrooms and 4.5 baths and a total of 2631 heated square feet. New single family dewlling.", "Latitude": 33.782493, "Longitude": -84.423185 }, "geometry": { "type": "Point", "coordinates": [ -84.423185, 33.782493 ] } },
{ "type": "Feature", "properties": { "fid": 227, "Date": "09/24/2021", "Address": "488 VILLAGE CREEK DR SE, UNIT A, ATLANTA GA 30354", "Description": "Construction of a new duplex family dwelling with 2 stories and 1 car garage at each unit. Slab on grade foundation, wood framed, with engineered floor and roof trusses.", "Latitude": 33.790465, "Longitude": -84.21668 }, "geometry": { "type": "Point", "coordinates": [ -84.21668, 33.790465 ] } },
{ "type": "Feature", "properties": { "fid": 228, "Date": "09/24/2021", "Address": "484 VILLAGE CREEK DR SE, UNIT A, ATLANTA GA 30354", "Description": "Construction of a new duplex family dwelling with 2 stories and 1 car garage at each unit. Slab on grade foundation, wood framed, with engineered floor and roof trusses.", "Latitude": 33.790469, "Longitude": -84.216908 }, "geometry": { "type": "Point", "coordinates": [ -84.216908, 33.790469 ] } },
{ "type": "Feature", "properties": { "fid": 229, "Date": "09/24/2021", "Address": "480 VILLAGE CREEK DR SE, UNIT A, ATLANTA GA 30354", "Description": "Construction of a new duplex family dwelling with 2 stories and 1 car garage at each unit. Slab on grade foundation, wood framed, with engineered floor and roof trusses.", "Latitude": 33.79046, "Longitude": -84.217127 }, "geometry": { "type": "Point", "coordinates": [ -84.217127, 33.79046 ] } },
{ "type": "Feature", "properties": { "fid": 230, "Date": "09/23/2021", "Address": "1871 WINDEMERE DR NE, ATLANTA GA 30324", "Description": "PERMIT TO COMPLETE WORK ON EXISTING NEW SINGLE FAMILY 90% COMPLETED. THERE IS 5% LEFT. IN FINAL INSPECTION PHASE. NEED C/O. EXPIRED PERMIT BB-201703127.", "Latitude": 33.805505, "Longitude": -84.363989 }, "geometry": { "type": "Point", "coordinates": [ -84.363989, 33.805505 ] } },
{ "type": "Feature", "properties": { "fid": 231, "Date": "09/23/2021", "Address": "254 MILLER REED AVE SE, ATLANTA GA 30315", "Description": "Construction of new 1,540 sq. ft. single family residence with 750 sq. ft. ADU", "Latitude": 33.715151, "Longitude": -84.379991 }, "geometry": { "type": "Point", "coordinates": [ -84.379991, 33.715151 ] } },
{ "type": "Feature", "properties": { "fid": 232, "Date": "09/23/2021", "Address": "2775 NORTH HILLS DR NE, ATLANTA GA 30305", "Description": "NEW CONSTRUCTION OF SFR . REBUILD - VACANT LOT; PREVIOUSLY DEMO'D BB-201907215", "Latitude": 33.830778, "Longitude": -84.372 }, "geometry": { "type": "Point", "coordinates": [ -84.372, 33.830778 ] } },
{ "type": "Feature", "properties": { "fid": 233, "Date": "09/23/2021", "Address": "252 MILTON AVE SE, ATLANTA GA 30315", "Description": "NEW 2 STORY DUPLEX", "Latitude": 33.71963, "Longitude": -84.37981 }, "geometry": { "type": "Point", "coordinates": [ -84.37981, 33.71963 ] } },
{ "type": "Feature", "properties": { "fid": 234, "Date": "09/23/2021", "Address": "439 MORGAN PL SE, ATLANTA GA 30317", "Description": "CONSTRUCTION OF SF HOME ON EXISTING BLOCK FOUNDATION (BUILT UNDER PREVIOUS OWNER'S PERMIT WITH PASSED FOOTING & SLAB INSPECTIONS).", "Latitude": 33.740451, "Longitude": -84.290508 }, "geometry": { "type": "Point", "coordinates": [ -84.290508, 33.740451 ] } },
{ "type": "Feature", "properties": { "fid": 235, "Date": "09/23/2021", "Address": "3876 PARIAN RIDGE RD NW, ATLANTA GA 30327", "Description": "CONSTRUCT NEW HOUSE WITH FINISH BASEMENT, ELEVATOR & POOL.", "Latitude": 33.860456, "Longitude": -84.444266 }, "geometry": { "type": "Point", "coordinates": [ -84.444266, 33.860456 ] } },
{ "type": "Feature", "properties": { "fid": 236, "Date": "09/23/2021", "Address": "1090 WEST AVE SW, ATLANTA GA 30315", "Description": "NEW HOUSE", "Latitude": 33.725108, "Longitude": -84.395462 }, "geometry": { "type": "Point", "coordinates": [ -84.395462, 33.725108 ] } },
{ "type": "Feature", "properties": { "fid": 237, "Date": "09/23/2021", "Address": "1218 EPWORTH ST SW, ATLANTA GA 30310", "Description": "NEW CONSTRUCTION RESULT OF DEMOLITION TO THE FOUNDATION", "Latitude": 33.721815, "Longitude": -84.430615 }, "geometry": { "type": "Point", "coordinates": [ -84.430615, 33.721815 ] } },
{ "type": "Feature", "properties": { "fid": 238, "Date": "09/23/2021", "Address": "814 DREWRY ST NE, ATLANTA GA 30306", "Description": "THREE STORY SINGLE FAMILY HOUSE WITH FRONT AND READ COVERED PORCH, DECK, TWO CAR GARAGE AND FINISHED BASEMENT", "Latitude": 33.778051, "Longitude": -84.360663 }, "geometry": { "type": "Point", "coordinates": [ -84.360663, 33.778051 ] } },
{ "type": "Feature", "properties": { "fid": 239, "Date": "09/22/2021", "Address": "454 VILLAGE CREEK DR SE, UNIT A, ATLANTA GA 30354", "Description": "NEW 2 STORY DUPLEX, 1 CAR GARGE PER UNIT. SLAB ON GRADE FUNDATION, WOOD FRAME, WITH ENGINEERED FLLOR AND ROOF TRUSSES", "Latitude": 33.667508, "Longitude": -84.389616 }, "geometry": { "type": "Point", "coordinates": [ -84.389616, 33.667508 ] } },
{ "type": "Feature", "properties": { "fid": 240, "Date": "09/22/2021", "Address": "460 VILLAGE CREEK DR SE, UNIT A, ATLANTA GA 30354", "Description": "NEW 2 STORY DUPLEX, 1 GARAGE  PER UNIT, SLAB ON GRADE FOUNDATION WOOD FRAMED, WITH ENIGINEREED FLOOR AND ROOF TRUSSES", "Latitude": 33.955616, "Longitude": -83.960766 }, "geometry": { "type": "Point", "coordinates": [ -83.960766, 33.955616 ] } },
{ "type": "Feature", "properties": { "fid": 241, "Date": "09/22/2021", "Address": "472 VILLAGE CREEK DR SE, UNIT A, ATLANTA GA 30354", "Description": "NEW 2 STORY DUPLEX , 1 CAR GARAGE PER UNIT, SLAB ON GRADE FOUNDATION, WOOD FRAME , ENGINEERED FLOOR JOIST ROOF TRUSSES", "Latitude": 33.671385, "Longitude": -84.379917 }, "geometry": { "type": "Point", "coordinates": [ -84.379917, 33.671385 ] } },
{ "type": "Feature", "properties": { "fid": 242, "Date": "09/22/2021", "Address": "476 VILLAGE CREEK DR SE, UNIT A, ATLANTA GA 30354", "Description": "NEW 2 STORY  DUPLEX ,1 GARAGE PER UNIT. SLAB ON GRADE FOUNDATION, WOOD FRAME WITH ENGINEERED FLOOR ANF ROOF TRUSSES.", "Latitude": 33.671385, "Longitude": -84.379917 }, "geometry": { "type": "Point", "coordinates": [ -84.379917, 33.671385 ] } },
{ "type": "Feature", "properties": { "fid": 243, "Date": "09/22/2021", "Address": "1123 BENTEEN AVE SE, ATLANTA GA 30312", "Description": "NEW TWO STORY SINGLE FAMILY HOUSE WITH COVERED FRONT AND REAR PORCH, DETACHED TWO CAR CARPORT", "Latitude": 33.724009, "Longitude": -84.36758 }, "geometry": { "type": "Point", "coordinates": [ -84.36758, 33.724009 ] } },
{ "type": "Feature", "properties": { "fid": 244, "Date": "09/22/2021", "Address": "44 PUTNAM DR NW, ATLANTA GA 30342", "Description": "New SFR", "Latitude": 33.858848, "Longitude": -84.388964 }, "geometry": { "type": "Point", "coordinates": [ -84.388964, 33.858848 ] } },
{ "type": "Feature", "properties": { "fid": 245, "Date": "09/22/2021", "Address": "89 SELMAN ST SE, ATLANTA GA 30316", "Description": "V-21-104 NEW TWO STORY SINGLE FAMILY HOUSE, WITH FRONT PORCH, COVERED REARPORCH", "Latitude": 33.751464, "Longitude": -84.358565 }, "geometry": { "type": "Point", "coordinates": [ -84.358565, 33.751464 ] } },
{ "type": "Feature", "properties": { "fid": 246, "Date": "09/22/2021", "Address": "1297 ELIZABETH AVE SW, ATLANTA GA 30310", "Description": "NEW SFR BUILD OUT OF SHIPPING CONTAINERS", "Latitude": 33.719391, "Longitude": -84.435843 }, "geometry": { "type": "Point", "coordinates": [ -84.435843, 33.719391 ] } },
{ "type": "Feature", "properties": { "fid": 247, "Date": "09/22/2021", "Address": "279 FAIRBURN RD NW, ATLANTA GA 30331", "Description": "New SFR", "Latitude": 33.762927, "Longitude": -84.50185 }, "geometry": { "type": "Point", "coordinates": [ -84.50185, 33.762927 ] } },
{ "type": "Feature", "properties": { "fid": 248, "Date": "09/22/2021", "Address": "4024 RIVERCHESS DR SW, ATLANTA GA 30331", "Description": "ONSTRUCTION; SINGLE FAMILY HOUSE; LOT #114", "Latitude": 33.675795, "Longitude": -84.52302 }, "geometry": { "type": "Point", "coordinates": [ -84.52302, 33.675795 ] } },
{ "type": "Feature", "properties": { "fid": 249, "Date": "09/22/2021", "Address": "4026 RIVERCHESS LN SW, ATLANTA GA 30331", "Description": "NEW CONSTRUCTION; SINGLE FAMILY HOUSE; LOT #135", "Latitude": 33.677317, "Longitude": -84.523272 }, "geometry": { "type": "Point", "coordinates": [ -84.523272, 33.677317 ] } },
{ "type": "Feature", "properties": { "fid": 250, "Date": "09/22/2021", "Address": "4034 RIVERCHESS DR SW, ATLANTA GA 30331", "Description": "NEW CONSTRUCTION; SINGLE FAMILY HOUSE; LOT #116", "Latitude": 33.675844, "Longitude": -84.523678 }, "geometry": { "type": "Point", "coordinates": [ -84.523678, 33.675844 ] } },
{ "type": "Feature", "properties": { "fid": 251, "Date": "09/22/2021", "Address": "2058 DETROIT AVE NW, ATLANTA GA 30314", "Description": "Construct new 2 story single family home with all M.E.P.'s with front porch and rear deck.(DEMO BB-201602941)", "Latitude": 33.766775, "Longitude": -84.454927 }, "geometry": { "type": "Point", "coordinates": [ -84.454927, 33.766775 ] } },
{ "type": "Feature", "properties": { "fid": 252, "Date": "09/21/2021", "Address": "840 MONROE CIR NE, ATLANTA GA 30308", "Description": "NEW DUPLEX , THREE FLOORS ABOVE THE GARAGE AND UNFINISHED BASEMENTDEMO BB-202107737", "Latitude": 33.777386, "Longitude": -84.368858 }, "geometry": { "type": "Point", "coordinates": [ -84.368858, 33.777386 ] } },
{ "type": "Feature", "properties": { "fid": 253, "Date": "09/21/2021", "Address": "1125 SELLS AVE SW, ATLANTA GA 30310", "Description": "1. CONSTRUCT A NEW SINGLE FAMILY RESIDENCE ON CRAWL SPACE.2. CONSTRUCT A NEW DECK AND PORCH.3. EXTERIOR FACADE OF THE HOUSE IS DESIGNED TO MATCH THE ADJACENT HOUSES TOMATCH THE HISTORIC STYLE.", "Latitude": 33.745532, "Longitude": -84.424556 }, "geometry": { "type": "Point", "coordinates": [ -84.424556, 33.745532 ] } },
{ "type": "Feature", "properties": { "fid": 254, "Date": "09/21/2021", "Address": "837 AMSTERDAM AVE NE, ATLANTA GA 30306", "Description": "THREE STORY SINGLE FAMILY HOUSE WITH FRONT AND READ COVERED PORCH, DECK, TWOCAR GARAGE AND FINISHED BASEMENT", "Latitude": 33.787339, "Longitude": -84.359771 }, "geometry": { "type": "Point", "coordinates": [ -84.359771, 33.787339 ] } },
{ "type": "Feature", "properties": { "fid": 255, "Date": "09/21/2021", "Address": "3112 ARGONNE DR NW, ATLANTA GA 0", "Description": "CONSTRUCTION OF NEW HOUSE", "Latitude": 33.840235, "Longitude": -84.407588 }, "geometry": { "type": "Point", "coordinates": [ -84.407588, 33.840235 ] } },
{ "type": "Feature", "properties": { "fid": 256, "Date": "09/20/2021", "Address": "4022 RIVERCHESS LN SW, ATLANTA GA 30331", "Description": "NEW CONSTRUCTION; SINGLE FAMILY HOUSE; LOT #134", "Latitude": 33.677241, "Longitude": -84.522957 }, "geometry": { "type": "Point", "coordinates": [ -84.522957, 33.677241 ] } },
{ "type": "Feature", "properties": { "fid": 257, "Date": "09/20/2021", "Address": "649 WEST VALLEY CT NW, ATLANTA GA 30327", "Description": "NEW SFR / POOL AND DECK / DETACH GARAGE. Related to LD-201900053", "Latitude": 33.874848, "Longitude": -84.410677 }, "geometry": { "type": "Point", "coordinates": [ -84.410677, 33.874848 ] } },
{ "type": "Feature", "properties": { "fid": 258, "Date": "09/20/2021", "Address": "4019 RIVERCHESS DR SW, ATLANTA GA 30331", "Description": "NEW CONSTRUCTION; SINGLE FAMILY HOUSE; LOT #124", "Latitude": 33.676526, "Longitude": -84.522671 }, "geometry": { "type": "Point", "coordinates": [ -84.522671, 33.676526 ] } },
{ "type": "Feature", "properties": { "fid": 259, "Date": "09/17/2021", "Address": "1808 LANIER DR SW, ATLANTA GA 30310", "Description": "Construction of a new single family home.", "Latitude": 33.705725, "Longitude": -84.425356 }, "geometry": { "type": "Point", "coordinates": [ -84.425356, 33.705725 ] } },
{ "type": "Feature", "properties": { "fid": 260, "Date": "09/17/2021", "Address": "4009 RIVERCHESS DR SW, ATLANTA GA 30331", "Description": "NEW CONSTRUCTION; SINGLE FAMILY HOUSE; LOT #126", "Latitude": 33.676409, "Longitude": -84.522013 }, "geometry": { "type": "Point", "coordinates": [ -84.522013, 33.676409 ] } },
{ "type": "Feature", "properties": { "fid": 261, "Date": "09/16/2021", "Address": "4014 RIVERCHESS LN SW, ATLANTA GA 30331", "Description": "NEW SINGLE FAMILY LOT 132", "Latitude": 33.677066, "Longitude": -84.522371 }, "geometry": { "type": "Point", "coordinates": [ -84.522371, 33.677066 ] } },
{ "type": "Feature", "properties": { "fid": 262, "Date": "09/16/2021", "Address": "4015 RIVERCHESS DR SW, ATLANTA GA 30331", "Description": "NEW SINGLE FAMILY LOT 125", "Latitude": 33.676465, "Longitude": -84.522342 }, "geometry": { "type": "Point", "coordinates": [ -84.522342, 33.676465 ] } },
{ "type": "Feature", "properties": { "fid": 263, "Date": "09/16/2021", "Address": "4016 RIVERCHESS DR SW, ATLANTA GA 30331", "Description": "NEW SINNGLE FAMILY LOT 112", "Latitude": 33.675763, "Longitude": -84.52237 }, "geometry": { "type": "Point", "coordinates": [ -84.52237, 33.675763 ] } },
{ "type": "Feature", "properties": { "fid": 264, "Date": "09/16/2021", "Address": "4018 RIVERCHESS LN SW, ATLANTA GA 30331", "Description": "NEW SINGLE FAMILY LOT 133", "Latitude": 33.677179, "Longitude": -84.522652 }, "geometry": { "type": "Point", "coordinates": [ -84.522652, 33.677179 ] } },
{ "type": "Feature", "properties": { "fid": 265, "Date": "09/16/2021", "Address": "650 Alfred RD NW, ATLANTA GA 30331", "Description": "New Construction of Single Family home , site work, tree removal, underground utilities, Concrete framing, house wrap, roofing, HVAC, Electrical, Plumbing, sheetrock, flooring, painting and etc.", "Latitude": 33.771734, "Longitude": -84.511337 }, "geometry": { "type": "Point", "coordinates": [ -84.511337, 33.771734 ] } },
{ "type": "Feature", "properties": { "fid": 266, "Date": "09/16/2021", "Address": "32 WALTHALL ST NE, ATLANTA GA 30307", "Description": "Construct new duplex with front porch and covered balcony on vacant lot.", "Latitude": 33.754461, "Longitude": -84.35223 }, "geometry": { "type": "Point", "coordinates": [ -84.35223, 33.754461 ] } },
{ "type": "Feature", "properties": { "fid": 267, "Date": "09/15/2021", "Address": "244 SCIPLE TER NW, ATLANTA GA 30314", "Description": "NEW CONSTRUCTION SINGLE FAMILY HOMES", "Latitude": 33.761375, "Longitude": -84.415572 }, "geometry": { "type": "Point", "coordinates": [ -84.415572, 33.761375 ] } },
{ "type": "Feature", "properties": { "fid": 268, "Date": "09/15/2021", "Address": "4004 RIVERCHESS LN SW, ATLANTA GA 30331", "Description": "NEW CONSTRUCTION; SINGLE FAMILY HOUSE; LOT #130", "Latitude": 33.676872, "Longitude": -84.521724 }, "geometry": { "type": "Point", "coordinates": [ -84.521724, 33.676872 ] } },
{ "type": "Feature", "properties": { "fid": 269, "Date": "09/15/2021", "Address": "2830 RIVEROAK CT SW, ATLANTA GA 30331", "Description": "NEW CONSTRUCTION; SINGLE FAMILY HOUSE LOT #122", "Latitude": 33.676868, "Longitude": -84.523335 }, "geometry": { "type": "Point", "coordinates": [ -84.523335, 33.676868 ] } },
{ "type": "Feature", "properties": { "fid": 270, "Date": "09/15/2021", "Address": "4002 RIVERCHESS DR SW, ATLANTA GA 30331", "Description": "NEW CONSTRUCTION; SINGLE FAMILY HOUSE; LOT #109", "Latitude": 33.675716, "Longitude": -84.521531 }, "geometry": { "type": "Point", "coordinates": [ -84.521531, 33.675716 ] } },
{ "type": "Feature", "properties": { "fid": 271, "Date": "09/15/2021", "Address": "4002 RIVERCHESS DR SW, ATLANTA GA 30331", "Description": "NEW CONSTRUCTION; SINGLE FAMILY HOUSE; LOT #109", "Latitude": 33.675716, "Longitude": -84.521531 }, "geometry": { "type": "Point", "coordinates": [ -84.521531, 33.675716 ] } },
{ "type": "Feature", "properties": { "fid": 272, "Date": "09/15/2021", "Address": "4000 RIVERCHESS LN SW, ATLANTA GA 30331", "Description": "NEW CONSTRUCTION; SINGLE FAMILY HOUSE; LOT #129", "Latitude": 33.676868, "Longitude": -84.521345 }, "geometry": { "type": "Point", "coordinates": [ -84.521345, 33.676868 ] } },
{ "type": "Feature", "properties": { "fid": 273, "Date": "09/15/2021", "Address": "4000 RIVERCHESS LN SW, ATLANTA GA 30331", "Description": "NEW CONSTRUCTION; SINGLE FAMILY HOUSE; LOT #129", "Latitude": 33.676868, "Longitude": -84.521345 }, "geometry": { "type": "Point", "coordinates": [ -84.521345, 33.676868 ] } },
{ "type": "Feature", "properties": { "fid": 274, "Date": "09/15/2021", "Address": "421 HAROLD AVE NE, ATLANTA GA 30307", "Description": "CONSTRUCT NSF HOME WITH DRIVE-UNDER GARAGE, PORCH, DECK, DRIVEWAY, WALKS &  SWIMMING POOL.", "Latitude": 33.765691, "Longitude": -84.330319 }, "geometry": { "type": "Point", "coordinates": [ -84.330319, 33.765691 ] } },
{ "type": "Feature", "properties": { "fid": 275, "Date": "09/15/2021", "Address": "3998 RIVERCHESS DR SW, ATLANTA GA 30331", "Description": "NEW CONSTRUCTION; SINGLE FAMILY HOUSE; LOT #108", "Latitude": 33.675703, "Longitude": -84.5213 }, "geometry": { "type": "Point", "coordinates": [ -84.5213, 33.675703 ] } },
{ "type": "Feature", "properties": { "fid": 276, "Date": "09/15/2021", "Address": "223 TENNESSEE AVE SW, ATLANTA GA 30315", "Description": "SFR NEW CONSTRUCTION", "Latitude": 33.734254, "Longitude": -84.395185 }, "geometry": { "type": "Point", "coordinates": [ -84.395185, 33.734254 ] } },
{ "type": "Feature", "properties": { "fid": 277, "Date": "09/15/2021", "Address": "3994 RIVERCHESS DR SW, ATLANTA GA 30331", "Description": "NEW CONSTRUCTION; SINGLE FAMILY HOUSE; LOT #107", "Latitude": 33.67569, "Longitude": -84.52107 }, "geometry": { "type": "Point", "coordinates": [ -84.52107, 33.67569 ] } },
{ "type": "Feature", "properties": { "fid": 278, "Date": "09/15/2021", "Address": "4008 RIVERCHESS LN SW, ATLANTA GA 30331", "Description": "NEW COSTRUCTION, NSF- LOT 131", "Latitude": 33.676953, "Longitude": -84.522066 }, "geometry": { "type": "Point", "coordinates": [ -84.522066, 33.676953 ] } },
{ "type": "Feature", "properties": { "fid": 279, "Date": "09/15/2021", "Address": "4006 RIVERCHESS DR SW, ATLANTA GA 30331", "Description": "NEW CONSTRUCTION-NSF LOT 110", "Latitude": 33.675729, "Longitude": -84.521761 }, "geometry": { "type": "Point", "coordinates": [ -84.521761, 33.675729 ] } },
{ "type": "Feature", "properties": { "fid": 280, "Date": "09/15/2021", "Address": "4005 RIVERCHESS DR SW, ATLANTA GA 30331", "Description": "NEW CONSTRUCTION, NSF LOT 27", "Latitude": 33.676382, "Longitude": -84.521681 }, "geometry": { "type": "Point", "coordinates": [ -84.521681, 33.676382 ] } },
{ "type": "Feature", "properties": { "fid": 281, "Date": "09/15/2021", "Address": "445 GRIFFIN ST NW, ATLANTA GA 30318", "Description": "TO CONSTRUCT A NEW SFR WITH CONNECTING DRIVEWAY, WALKWAYS & ASSOCIATED UTILITIES ALONG WITH GREEN STORMWATER INFRASTRUCTURE.", "Latitude": 33.766812, "Longitude": -84.410863 }, "geometry": { "type": "Point", "coordinates": [ -84.410863, 33.766812 ] } },
{ "type": "Feature", "properties": { "fid": 282, "Date": "09/15/2021", "Address": "3173 OVERHILL CT SE, ATLANTA GA 30354", "Description": "Construction of new single family residence with front porch and rear deck, new driveway to be poured.             (INTERIOR LOT OF 3116 BROWNS MILL ROAD                                                                                                                       BROWNS MILL SUBDIVISION PDSD-20-001.....PARCEL ID:14 00350004029)", "Latitude": 33.669114, "Longitude": -84.37909 }, "geometry": { "type": "Point", "coordinates": [ -84.37909, 33.669114 ] } },
{ "type": "Feature", "properties": { "fid": 283, "Date": "09/15/2021", "Address": "647 ERIN AVE SW, ATLANTA GA 30310", "Description": "NEW SFR", "Latitude": 33.719889, "Longitude": -84.408747 }, "geometry": { "type": "Point", "coordinates": [ -84.408747, 33.719889 ] } },
{ "type": "Feature", "properties": { "fid": 284, "Date": "09/14/2021", "Address": "219 TENNESSEE AVE SW, ATLANTA GA 30315", "Description": "NEW CONSTRUCTION OF SINGLE FAMILY HOME", "Latitude": 33.734229, "Longitude": -84.395179 }, "geometry": { "type": "Point", "coordinates": [ -84.395179, 33.734229 ] } },
{ "type": "Feature", "properties": { "fid": 285, "Date": "09/14/2021", "Address": "3990 RIVERCHESS DR SW, ATLANTA GA 30331", "Description": "TELL  RIVER -NSF- LOT 106", "Latitude": 33.675684, "Longitude": -84.520801 }, "geometry": { "type": "Point", "coordinates": [ -84.520801, 33.675684 ] } },
{ "type": "Feature", "properties": { "fid": 286, "Date": "09/14/2021", "Address": "855 KENRY CT NE, ATLANTA GA 30342", "Description": "NEW CONSTRUCTION OF A SINGLE FAMILY HOME ON UNFINISHED BASEMENT", "Latitude": 33.877879, "Longitude": -84.358212 }, "geometry": { "type": "Point", "coordinates": [ -84.358212, 33.877879 ] } },
{ "type": "Feature", "properties": { "fid": 287, "Date": "09/14/2021", "Address": "720 SMITH ST SW, ATLANTA GA 30310", "Description": "New residential construction of a single family property", "Latitude": 33.735303, "Longitude": -84.400629 }, "geometry": { "type": "Point", "coordinates": [ -84.400629, 33.735303 ] } },
{ "type": "Feature", "properties": { "fid": 288, "Date": "09/14/2021", "Address": "495 WEST ONTARIO AVE SW, ATLANTA GA 30310", "Description": "CONSTRUCT A NEW SINGLE FAMILY RESIDENTIAL HOUSE ON THE EXISITING LOT.(DEMO BB-2013063622)", "Latitude": 33.741548, "Longitude": -84.440215 }, "geometry": { "type": "Point", "coordinates": [ -84.440215, 33.741548 ] } },
{ "type": "Feature", "properties": { "fid": 289, "Date": "09/14/2021", "Address": "1033 ALLENE AVE SW, ATLANTA GA 30310", "Description": "NEW CONSTRUCTION OF A SINGLE FAMILY RESIDENCE", "Latitude": 33.726684, "Longitude": -84.413898 }, "geometry": { "type": "Point", "coordinates": [ -84.413898, 33.726684 ] } },